[{"sno":"500201001","sna":"YouBike2.0_下庄市場","tot":"20","sbi":"4","sarea":"八里區","mday":"20250922175002","lat":"25.14678","lng":"121.3999","ar":"舊城路21號(前)","sareaen":"Bali Dist","snaen":"YouBike2.0_Shia Juang Market","aren":"No.21, Jiucheng Rd., Bali Dist","bemp":"15","act":"1"},{"sno":"500201002","sna":"YouBike2.0_八里行政中心","tot":"20","sbi":"8","sarea":"八里區","mday":"20250921161602","lat":"25.15397","lng":"121.40721","ar":"十三行路(靠中山路二段路口西南側人行道)","sareaen":"Bali Dist","snaen":"YouBike2.0_Bali District Center","aren":"Shisanhang Rd. & Zhongshan Rd. Intersection (Southwest)","bemp":"12","act":"1"},{"sno":"500201003","sna":"YouBike2.0_八里中庄市場綜合大樓","tot":"28","sbi":"9","sarea":"八里區","mday":"20250922133102","lat":"25.15993","lng":"121.41407","ar":"中山路一段268巷2號(對面汽車停車場)","sareaen":"Bali Dist","snaen":"YouBike2.0_Bali Chung Chuang Market Multi-Purpose Building","aren":"No. 2, Ln. 268, Sec. 1, Zhongshan Rd., Bali Dist.","bemp":"19","act":"1"},{"sno":"500201004","sna":"YouBike2.0_大崁國小","tot":"20","sbi":"9","sarea":"八里區","mday":"20250922184004","lat":"25.16064","lng":"121.41938","ar":"忠八街2號(前)","sareaen":"Bali Dist","snaen":"YouBike2.0_DaKan Elementary School","aren":"No. 2, Zhong 8th St., Bali Dist.","bemp":"10","act":"1"},{"sno":"500201006","sna":"YouBike2.0_龍形停車場","tot":"40","sbi":"17","sarea":"八里區","mday":"20250922184004","lat":"25.13041","lng":"121.4513","ar":"龍米路一段318號(對面停車場)","sareaen":"Bali Dist","snaen":"YouBike2.0_Long Xing Parking Tower","aren":"No. 318, Sec 1, Longmi Rd.(Opposite)","bemp":"20","act":"1"},{"sno":"500201007","sna":"YouBike2.0_十三行博物館","tot":"46","sbi":"10","sarea":"八里區","mday":"20250922135004","lat":"25.157","lng":"121.406","ar":"博物館路183號(對面)","sareaen":"Bali Dist","snaen":"YouBike2.0_Shihsanhang Museum of Archaeology","aren":"No. 183, Museum Rd., Bali Dist.(opposite)","bemp":"36","act":"1"},{"sno":"500201008","sna":"YouBike2.0_八里區民活動中心","tot":"14","sbi":"2","sarea":"八里區","mday":"20250922132503","lat":"25.14933","lng":"121.40126","ar":"中山路二段356巷12號(旁)","sareaen":"Bali Dist","snaen":"YouBike2.0_Bali Activity Center","aren":"No. 12, Ln. 356, Sec. 2, Zhongshan Rd.","bemp":"12","act":"1"},{"sno":"500201009","sna":"YouBike2.0_挖仔尾自然生態保留區","tot":"15","sbi":"7","sarea":"八里區","mday":"20250922175002","lat":"25.16419","lng":"121.41586","ar":"博物館路/挖仔尾街口(西側)","sareaen":"Bali Dist","snaen":"YouBike2.0_Waziwei Ecological Reserves","aren":"Museum Rd. & Waziwei St. Intersection(West)","bemp":"7","act":"1"},{"sno":"500201010","sna":"YouBike2.0_文昌公園","tot":"15","sbi":"5","sarea":"八里區","mday":"20250922011902","lat":"25.15709","lng":"121.41033","ar":"中山路二段/文昌路(東側)","sareaen":"Bali Dist","snaen":"YouBike2.0_Wenchang Park","aren":"Sec. 2, Zhongshan Rd. & Wenchang Rd.(East)","bemp":"9","act":"1"},{"sno":"500201011","sna":"YouBike2.0_八里國小","tot":"15","sbi":"0","sarea":"八里區","mday":"20250922184816","lat":"25.14896","lng":"121.4026","ar":"中山路二段251號(對面)","sareaen":"Bali Dist","snaen":"YouBike2.0_Bali Elementary School","aren":"No. 251, Sec. 2, Zhongshan Rd.(Opposite)","bemp":"14","act":"1"},{"sno":"500201012","sna":"YouBike2.0_八里文化公園(棒球場)","tot":"30","sbi":"8","sarea":"八里區","mday":"20250922142802","lat":"25.16359","lng":"121.41251","ar":"忠孝路與挖仔街口(棒球場公園入口)","sareaen":"Bali Dist","snaen":"YouBike2.0_Bali Wenhua Park","aren":"Zhongxiao & Waziwei street entrance (baseball park)","bemp":"22","act":"1"},{"sno":"500201013","sna":"YouBike2.0_水興公","tot":"15","sbi":"7","sarea":"八里區","mday":"20250922074003","lat":"25.16208","lng":"121.42509","ar":"觀海大道/忠四街(北側)","sareaen":"Bali Dist","snaen":"YouBike2.0_Shuixinggong","aren":"Guanhai Blvd. & Zhong 4th St. (North west)","bemp":"6","act":"1"},{"sno":"500201014","sna":"YouBike2.0_片仔溝公園","tot":"20","sbi":"4","sarea":"八里區","mday":"20250922164006","lat":"25.15020","lng":"121.40581","ar":"中華路二段210號旁","sareaen":"Bali Dist","snaen":"YouBike2.0_Pianzaigou Park","aren":"No. 210, Sec. 2, Zhonghua Rd. (Side)","bemp":"16","act":"1"},{"sno":"500201015","sna":"YouBike2.0_八里福朋喜來登酒店","tot":"18","sbi":"6","sarea":"八里區","mday":"20250922152403","lat":"25.15922","lng":"121.42945","ar":"觀海大道8號","sareaen":"Bali Dist","snaen":"YouBike2.0_Four Points by Sheraton Taipei Bali","aren":"No. 8, Guanhai Blvd.","bemp":"12","act":"1"},{"sno":"500201016","sna":"YouBike2.0_訊塘社區公園","tot":"13","sbi":"8","sarea":"八里區","mday":"20250922153004","lat":"25.14550","lng":"121.39609","ar":"商港路/中山路二段口(東北側)","sareaen":"Bali Dist","snaen":"YouBike2.0_Xuntang Community Park","aren":"Shanggang Rd. & Sec. 2, Zhongshan Rd. (Northeast)","bemp":"5","act":"1"},{"sno":"500201017","sna":"YouBike2.0_商港公園(商港八商港一路口)","tot":"15","sbi":"5","sarea":"八里區","mday":"20250922104002","lat":"25.15039","lng":"121.40026","ar":"商港八路/商港一路口","sareaen":"Bali Dist","snaen":"YouBike2.0_Bali ShangGang Park (Shanggang 8th Rd. Intersection)","aren":"Shanggang 8th Rd. & Shanggang 1st Rd. Intersection","bemp":"9","act":"1"},{"sno":"500201018","sna":"YouBike2.0_商港公園(商港七商港一路口)","tot":"15","sbi":"3","sarea":"八里區","mday":"20250921230003","lat":"25.14916","lng":"121.39841","ar":"商港七路/商港一路口","sareaen":"Bali Dist","snaen":"YouBike2.0_Bali ShangGang Park (Shanggang 7th Rd. Intersection)","aren":"Shanggang 7th Rd. & Shanggang 1st Rd. Intersection","bemp":"12","act":"1"},{"sno":"500201019","sna":"YouBike2.0_渡船頭平面停車場","tot":"33","sbi":"7","sarea":"八里區","mday":"20250922091004","lat":"25.15687","lng":"121.43527","ar":"渡船頭路/龍米路二段口(西北側)","sareaen":"Bali Dist","snaen":"YouBike2.0_Duchuantou Parking Lot","aren":"Duchuantou Rd. & Sec. 2, Longmi Rd. Intersection (Northwest)","bemp":"26","act":"1"},{"sno":"500201020","sna":"YouBike2.0_訊塘廣場(義民中華路口)","tot":"21","sbi":"6","sarea":"八里區","mday":"20250922145201","lat":"25.14256","lng":"121.39564","ar":"義民街/中華路三段口","sareaen":"Bali Dist","snaen":"YouBike2.0_XunTang Square (YiMin St. & ZhongHua Rd. Intersection)","aren":"YiMin St. & Sec. 3, ZhongHua Rd. Intersection","bemp":"15","act":"1"},{"sno":"500201021","sna":"YouBike2.0_八里停五平面停車場","tot":"30","sbi":"8","sarea":"八里區","mday":"20250921162005","lat":"25.15779","lng":"121.41758","ar":"賢三街/大崁二街口(西南側)","sareaen":"Bali Dist","snaen":"YouBike2.0_BaLi 5th Car Park","aren":"Xian 3rd St. & Dakan 2nd St. (Southwest)","bemp":"22","act":"1"},{"sno":"500201022","sna":"YouBike2.0_頂罟公園","tot":"15","sbi":"3","sarea":"八里區","mday":"20250921173003","lat":"25.15330","lng":"121.40413","ar":"商港一路/商港九路(南側)","sareaen":"Bali Dist","snaen":"YouBike2.0_DingGu Park","aren":"ShangGang 1st Rd. & ShangGang 9th Rd. (South)","bemp":"11","act":"1"},{"sno":"500201023","sna":"YouBike2.0_狀元公園","tot":"20","sbi":"7","sarea":"八里區","mday":"20250921171004","lat":"25.15450","lng":"121.41036","ar":"狀元路/文昌五街(西北側)","sareaen":"Bali Dist","snaen":"YouBike2.0_ZhuangYuan Park","aren":"ZhuangYuan Rd. & WenChang 5th St. (Northwest)","bemp":"13","act":"1"},{"sno":"500201024","sna":"YouBike2.0_商港三頂罟二路口","tot":"25","sbi":"18","sarea":"八里區","mday":"20250922192004","lat":"25.15333","lng":"121.40168","ar":"商港三路101號(西北側)","sareaen":"Bali Dist","snaen":"YouBike2.0_ShangGang 3rd Rd. & DingGu 2nd Rd. Intersection","aren":"No. 101, ShangGang 3rd Rd. (Northwest)","bemp":"7","act":"1"},{"sno":"500201025","sna":"YouBike2.0_商港六商港三路口","tot":"15","sbi":"6","sarea":"八里區","mday":"20250922164006","lat":"25.14968","lng":"121.39589","ar":"商港六路/商港三路(西北側)","sareaen":"Bali Dist","snaen":"YouBike2.0_ShangGang 6th Rd. & ShangGang 3rd Rd. Intersection","aren":"ShangGang 6th Rd. & ShangGang 3rd Rd. (Northwest)","bemp":"9","act":"1"},{"sno":"500201026","sna":"YouBike2.0_訊庄埔公園","tot":"15","sbi":"1","sarea":"八里區","mday":"20250922112115","lat":"25.14244","lng":"121.39222","ar":"訊塘二路/添丁街(西北側)","sareaen":"Bali Dist","snaen":"YouBike2.0_Xunzhuangpu Park","aren":"XunTang 2nd Rd. & TianDing St. (Northwest)","bemp":"14","act":"1"},{"sno":"500202001","sna":"YouBike2.0_淺水灣","tot":"48","sbi":"0","sarea":"三芝區","mday":"20250922180315","lat":"25.25232","lng":"121.47131","ar":"北勢子42-11號西側","sareaen":"Sanzhi Dist","snaen":"YouBike2.0_Qianshui Bay","aren":"No. 42-11, Beishizi, Sanzhi Dist.(opposite)","bemp":"0","act":"1"},{"sno":"500202002","sna":"YouBike2.0_三芝國中","tot":"14","sbi":"12","sarea":"三芝區","mday":"20250922192517","lat":"25.25898","lng":"121.50182","ar":"淡金路一段38號","sareaen":"Sanzhi Dist","snaen":"YouBike2.0_Sanzhi Junior High School","aren":"No. 38, Sec. 1, Danjin Rd.","bemp":"2","act":"1"},{"sno":"500202003","sna":"YouBike2.0_櫻花水車公園","tot":"15","sbi":"4","sarea":"三芝區","mday":"20250922132302","lat":"25.25119","lng":"121.50125","ar":"埔頭里埔頭11-5號南側","sareaen":"Sanzhi Dist","snaen":"YouBike2.0_Yinghua Park","aren":"No. 11-5, Putou, Putou Village(South)","bemp":"11","act":"1"},{"sno":"500202004","sna":"YouBike2.0_三芝兒一公園","tot":"15","sbi":"10","sarea":"三芝區","mday":"20250921222101","lat":"25.25719","lng":"121.4994","ar":"長安街79號西側","sareaen":"Sanzhi Dist","snaen":"YouBike2.0_Sanzhi Children Park (No.1)","aren":"No. 79, Chang'an St.(West)","bemp":"5","act":"1"},{"sno":"500202005","sna":"YouBike2.0_三芝區公所","tot":"15","sbi":"10","sarea":"三芝區","mday":"20250922042601","lat":"25.25788","lng":"121.50082","ar":"中山路一段32號","sareaen":"Sanzhi Dist","snaen":"YouBike2.0_Sanzhi District Office","aren":"No. 32, Sec. 1, Zhongshan Rd.","bemp":"5","act":"1"},{"sno":"500202006","sna":"YouBike2.0_馬偕醫學大學(第二教研大樓)","tot":"26","sbi":"13","sarea":"三芝區","mday":"20250920235003","lat":"25.25303","lng":"121.49559","ar":"中正路三段46號(第二教研大樓)","sareaen":"Sanzhi Dist","snaen":"YouBike2.0_MacKay Medical University (Teaching & Research Building)","aren":"No. 46, Sec. 3, ZhongZheng Rd.","bemp":"13","act":"1"},{"sno":"500202007","sna":"YouBike2.0_馬偕醫學大學(圓環)","tot":"20","sbi":"12","sarea":"三芝區","mday":"20250921232801","lat":"25.25438","lng":"121.49571","ar":"中正路三段46號","sareaen":"Sanzhi Dist","snaen":"YouBike2.0_MacKay Medical University (Circle Security Room)","aren":"No. 46, Sec. 3, ZhongZheng Rd.","bemp":"8","act":"1"},{"sno":"500202008","sna":"YouBike2.0_三芝兒三公園(三民街)","tot":"17","sbi":"0","sarea":"三芝區","mday":"20250922175016","lat":"25.25874","lng":"121.50499","ar":"三民街41號(對側)","sareaen":"Sanzhi Dist","snaen":"YouBike2.0_SanZhi Children's Park(No. 3) (SanMin St.)","aren":"No. 41, SanMin St. (Opposite)","bemp":"17","act":"1"},{"sno":"500202009","sna":"YouBike2.0_三生步道","tot":"20","sbi":"0","sarea":"三芝區","mday":"20250922180218","lat":"25.26815","lng":"121.51005","ar":"三生步道(西側)","sareaen":"Sanzhi Dist","snaen":"YouBike2.0_SanSheng Trail","aren":"SanSheng Trail (West)","bemp":"0","act":"1"},{"sno":"500203001","sna":"YouBike2.0_重新重安街口","tot":"29","sbi":"19","sarea":"三重區","mday":"20250922171417","lat":"25.05844","lng":"121.48975","ar":"重安街1號(旁)","sareaen":"Sanchong Dist","snaen":"YouBike2.0_Chongxin Rd. & Zhongan St. Intersection","aren":"No. 1, Zhongan St.","bemp":"10","act":"1"},{"sno":"500203002","sna":"YouBike2.0_三重高中","tot":"40","sbi":"5","sarea":"三重區","mday":"20250922175002","lat":"25.05478","lng":"121.49171","ar":"集美街225號(對面)","sareaen":"Sanchong Dist","snaen":"YouBike2.0_Sanchong High School","aren":"No. 225, Jimei St.(opposite)","bemp":"35","act":"1"},{"sno":"500203003","sna":"YouBike2.0_三重國民運動中心","tot":"38","sbi":"6","sarea":"三重區","mday":"20250922152301","lat":"25.05439","lng":"121.48849","ar":"集美街55號(對面)","sareaen":"Sanchong Dist","snaen":"YouBike2.0_Sanchong Civil Sports Center","aren":"No. 55, Jimei St.(opposite)","bemp":"32","act":"1"},{"sno":"500203004","sna":"YouBike2.0_捷運三重站(1號出口)","tot":"61","sbi":"0","sarea":"三重區","mday":"20250922192118","lat":"25.05464","lng":"121.48322","ar":"捷運路36號(旁)","sareaen":"Sanchong Dist","snaen":"YouBike2.0_MRT Sanchong Sta. (Exit 1)","aren":"No. 36, Jieyun Rd.","bemp":"61","act":"1"},{"sno":"500203005","sna":"YouBike2.0_中興橋(環河南路254巷口)","tot":"26","sbi":"11","sarea":"三重區","mday":"20250922105702","lat":"25.05052","lng":"121.49138","ar":"環河南路253號(對面)","sareaen":"Sanchong Dist","snaen":"YouBike2.0_Zhongxing Bridge (Ln. 254, Huanhe S. Rd.)","aren":"No. 253, Huanhe S. Rd.(opposite)","bemp":"15","act":"1"},{"sno":"500203006","sna":"YouBike2.0_疏洪東竹圍仔街口","tot":"25","sbi":"4","sarea":"三重區","mday":"20250922175002","lat":"25.04861","lng":"121.4864","ar":"疏洪東路一段38號(前)","sareaen":"Sanchong Dist","snaen":"YouBike2.0_Shuhong E. Rd. & Zhuweizi St. Intersection","aren":"No. 38, Sec. 1, Shuhong E. Rd.","bemp":"21","act":"1"},{"sno":"500203007","sna":"YouBike2.0_環河福德南路口","tot":"28","sbi":"15","sarea":"三重區","mday":"20250922185004","lat":"25.06029","lng":"121.50217","ar":"福德南路71號(對面)","sareaen":"Sanchong Dist","snaen":"YouBike2.0_Huanhe Rd. & Fude Rd. Intersection","aren":"No. 71, Fude S. Rd.(opposite)","bemp":"13","act":"1"},{"sno":"500203008","sna":"YouBike2.0_光興國小","tot":"30","sbi":"15","sarea":"三重區","mday":"20250922165004","lat":"25.06027","lng":"121.49978","ar":"光興街23號(對面)","sareaen":"Sanchong Dist","snaen":"YouBike2.0_Guangxing Elementary School","aren":"No. 23, Guangxing st.(opposite)","bemp":"15","act":"1"},{"sno":"500203009","sna":"YouBike2.0_三光國小(金滿意)","tot":"36","sbi":"14","sarea":"三重區","mday":"20250922190616","lat":"25.05596","lng":"121.49687","ar":"大同南路157號(前)","sareaen":"Sanchong Dist","snaen":"YouBike2.0_Sanguang Elementary School (Jin manyì)","aren":"No. 157, Datong S. Rd.","bemp":"22","act":"1"},{"sno":"500203010","sna":"YouBike2.0_聯邦公園","tot":"54","sbi":"20","sarea":"三重區","mday":"20250922192004","lat":"25.06445","lng":"121.48371","ar":"三民路/中華路口(東南側)","sareaen":"Sanchong Dist","snaen":"YouBike2.0_Lianbang Park","aren":"Sanmin Rd. & Zhonghua Rd. Intersection (Southeast)","bemp":"34","act":"1"},{"sno":"500203011","sna":"YouBike2.0_興華公園","tot":"45","sbi":"9","sarea":"三重區","mday":"20250922184004","lat":"25.06013","lng":"121.4831","ar":"中華路5號(前)","sareaen":"Sanchong Dist","snaen":"YouBike2.0_Xinghua Park","aren":"No. 5, Zhonghua Rd.","bemp":"36","act":"1"},{"sno":"500203012","sna":"YouBike2.0_文中小停車場","tot":"44","sbi":"1","sarea":"三重區","mday":"20250922165215","lat":"25.05899","lng":"121.48255","ar":"名源街54號(對面)","sareaen":"Sanchong Dist","snaen":"YouBike2.0_Wenzhongxiao Parking Lot","aren":"No. 54, Mingyuan St.","bemp":"43","act":"1"},{"sno":"500203013","sna":"YouBike2.0_三重行政中心","tot":"38","sbi":"23","sarea":"三重區","mday":"20250922151502","lat":"25.06057","lng":"121.48823","ar":"新北大道一段5巷2弄/過圳街31巷(西南側)","sareaen":"Sanchong Dist","snaen":"YouBike2.0_Sanchong District Admin. Center","aren":"Aly. 2, Ln. 5, Sec. 1, New Taipei Blvd. & Ln. 31, Guozhen St. Intersection (Southwest)","bemp":"13","act":"1"},{"sno":"500203014","sna":"YouBike2.0_捷運菜寮站(3號出口)","tot":"60","sbi":"48","sarea":"三重區","mday":"20250922174815","lat":"25.06047","lng":"121.4922","ar":"重新路三段67號(旁)","sareaen":"Sanchong Dist","snaen":"YouBike2.0_MRT Cailiao Sta. (Exit 3)","aren":"No. 67, Sec. 3, Chongxin Rd.","bemp":"10","act":"1"},{"sno":"500203015","sna":"YouBike2.0_三重綜合體育館","tot":"52","sbi":"0","sarea":"三重區","mday":"20250922190515","lat":"25.06145","lng":"121.49193","ar":"中正北路/中正北路25巷(南側)","sareaen":"Sanchong Dist","snaen":"YouBike2.0_Sanchong Sports Center","aren":"Zhongzheng N. Rd. & Ln. 25, Zhongzheng N. Rd. (South)","bemp":"51","act":"1"},{"sno":"500203016","sna":"YouBike2.0_三重商工(後竹圍街)","tot":"30","sbi":"4","sarea":"三重區","mday":"20250922185004","lat":"25.07031","lng":"121.47976","ar":"中正北路165巷53號(後竹圍街路側停車格)","sareaen":"Sanchong Dist","snaen":"YouBike2.0_SanChung Commercial and Indus (Houzhuwei St.)","aren":"No. 53, Ln. 165, Zhongzheng N. Rd. (Houzhuwei St.)","bemp":"26","act":"1"},{"sno":"500203017","sna":"YouBike2.0_力行大勇街口","tot":"33","sbi":"17","sarea":"三重區","mday":"20250922184004","lat":"25.07193","lng":"121.48151","ar":"力行路一段188巷/國道路一段70巷(東南側)","sareaen":"Sanchong Dist","snaen":"YouBike2.0_Lixing & Tayung Intersection","aren":"Ln. 188, Sec. 1, Lixing Rd./Ln. 70, Sec. 1, Guodao Rd. Intersection","bemp":"15","act":"1"},{"sno":"500203018","sna":"YouBike2.0_後竹圍市民活動中心","tot":"39","sbi":"18","sarea":"三重區","mday":"20250922185004","lat":"25.07246","lng":"121.48576","ar":"後竹圍街175巷22號(對面)","sareaen":"Sanchong Dist","snaen":"YouBike2.0_Houzhuwei Civil Activity Center","aren":"No. 22, Ln. 175, Houzhuwei St., Sanchong Dist.(opposite)","bemp":"21","act":"1"},{"sno":"500203019","sna":"YouBike2.0_和平公園","tot":"20","sbi":"10","sarea":"三重區","mday":"20250922173815","lat":"25.07088","lng":"121.48571","ar":"忠孝路二段2-1號(旁)","sareaen":"Sanchong Dist","snaen":"YouBike2.0_Helping Park","aren":"No.2, Sec. 2, Zhongxiao Rd.","bemp":"9","act":"1"},{"sno":"500203020","sna":"YouBike2.0_六合公園","tot":"44","sbi":"33","sarea":"三重區","mday":"20250922192004","lat":"25.0695","lng":"121.48759","ar":"自強路二段74巷91號(對面)","sareaen":"Sanchong Dist","snaen":"YouBike2.0_Liuhe Park","aren":"No.91, Ln. 74, Sec. 2, Ziqiang Rd. (opposite)","bemp":"11","act":"1"},{"sno":"500203021","sna":"YouBike2.0_三張公園","tot":"48","sbi":"21","sarea":"三重區","mday":"20250922184004","lat":"25.07051","lng":"121.49094","ar":"自強路二段47巷57號(對面)","sareaen":"Sanchong Dist","snaen":"YouBike2.0_Sanzhang Park","aren":"No. 57, Ln. 47, Sec. 2, Ziqiang Rd. (opposite)","bemp":"26","act":"1"},{"sno":"500203022","sna":"YouBike2.0_厚德公園","tot":"41","sbi":"40","sarea":"三重區","mday":"20250922191416","lat":"25.07199","lng":"121.4912","ar":"忠孝路一段37號(前)","sareaen":"Sanchong Dist","snaen":"YouBike2.0_Houde Park","aren":"No.37, Sec. 1, Zhongxiao Rd.","bemp":"1","act":"1"},{"sno":"500203023","sna":"YouBike2.0_修德國小","tot":"34","sbi":"2","sarea":"三重區","mday":"20250922171516","lat":"25.0653","lng":"121.49045","ar":"重陽路三段3號(民生街側)","sareaen":"Sanchong Dist","snaen":"YouBike2.0_Sioude Elementary School","aren":"No. 3, Sec. 3, Chongxin Rd.","bemp":"32","act":"1"},{"sno":"500203024","sna":"YouBike2.0_明志國中","tot":"57","sbi":"1","sarea":"三重區","mday":"20250922191018","lat":"25.06340","lng":"121.48898","ar":"中正北路107號(旁)","sareaen":"Sanchong Dist","snaen":"YouBike2.0_Mingzhi Junior High School","aren":"No.107, Zhongzheng S. Rd.","bemp":"56","act":"1"},{"sno":"500203025","sna":"YouBike2.0_龍門龍濱路口","tot":"30","sbi":"11","sarea":"三重區","mday":"20250922192004","lat":"25.07348","lng":"121.50098","ar":"龍濱路196號(對面)","sareaen":"Sanchong Dist","snaen":"YouBike2.0_Longmen & Longbin Intersection","aren":"No.196, Longmen Rd. (Oppsite)","bemp":"19","act":"1"},{"sno":"500203026","sna":"YouBike2.0_三德公園","tot":"36","sbi":"2","sarea":"三重區","mday":"20250922153004","lat":"25.075005324200696","lng":"121.50076924045402","ar":"龍門路274巷35號(對面)","sareaen":"Sanchong Dist","snaen":"YouBike2.0_Sante Park","aren":"No.35, Ln. 274, Longmen Rd. (opposite)","bemp":"34","act":"1"},{"sno":"500203027","sna":"YouBike2.0_開元市民活動中心","tot":"36","sbi":"15","sarea":"三重區","mday":"20250922192004","lat":"25.06607","lng":"121.50356","ar":"開元街58號/長元街65巷16弄對面","sareaen":"Sanchong Dist","snaen":"YouBike2.0_Kaiyuan Civic Activity Center","aren":"No.58, Kaiyuan St./Aly. 16, Ln. 65, Changyuan St. (opposite)","bemp":"21","act":"1"},{"sno":"500203028","sna":"YouBike2.0_信義公園","tot":"32","sbi":"21","sarea":"三重區","mday":"20250922175002","lat":"25.0648","lng":"121.49875","ar":"信義西街18號對面人行道","sareaen":"Sanchong Dist","snaen":"YouBike2.0_Xinyi Park","aren":"No.18, Xinyi W. St. (opposite)","bemp":"11","act":"1"},{"sno":"500203029","sna":"YouBike2.0_集成成功路口","tot":"35","sbi":"7","sarea":"三重區","mday":"20250922161003","lat":"25.05154","lng":"121.48821","ar":"集成路2號至8號前人行道","sareaen":"Sanchong Dist","snaen":"YouBike2.0_Ji Cheng Cheng Gong Intersection","aren":"No.2 to No.8, Jicheng Rd.","bemp":"28","act":"1"},{"sno":"500203030","sna":"YouBike2.0_翔譽雙子星","tot":"36","sbi":"11","sarea":"三重區","mday":"20250922192004","lat":"25.05364","lng":"121.49292","ar":"三重區中正南路251號(右側人行道)","sareaen":"Sanchong Dist","snaen":"YouBike2.0_Xiang Yu Twin Towers","aren":"No.251, Zhongzheng S. Rd., Sanchong Dist","bemp":"25","act":"1"},{"sno":"500203031","sna":"YouBike2.0_穀保家商","tot":"33","sbi":"32","sarea":"三重區","mday":"20250922120416","lat":"25.0681","lng":"121.47103","ar":"疏洪東路三段/中正北路560巷口","sareaen":"Sanchong Dist","snaen":"YouBike2.0_Ku Pao Home Economics & Commercial High School","aren":"Sec. 4,Shuhong WRd., Sanchong Dist./Ln. 560, Zhongzheng N. Rd.","bemp":"1","act":"1"},{"sno":"500203032","sna":"YouBike2.0_正義公園","tot":"48","sbi":"26","sarea":"三重區","mday":"20250922160202","lat":"25.06855","lng":"121.49782","ar":"文化北路101號至119號對面","sareaen":"Sanchong Dist","snaen":"YouBike2.0_Zhengyi Park","aren":"No.101 to No. 119, Wenhua N. Rd. (opposite)","bemp":"22","act":"1"},{"sno":"500203033","sna":"YouBike2.0_大智公園","tot":"30","sbi":"18","sarea":"三重區","mday":"20250922192004","lat":"25.06361","lng":"121.49445","ar":"大同北路56號(對面)","sareaen":"Sanchong Dist","snaen":"YouBike2.0_Dazhi Park","aren":"No.56, Datong N. Rd., Sanchong Dist.","bemp":"12","act":"1"},{"sno":"500203034","sna":"YouBike2.0_捷運三重國小站","tot":"52","sbi":"10","sarea":"三重區","mday":"20250922185004","lat":"25.07042","lng":"121.49713","ar":"仁愛街/三和路3段11巷","sareaen":"Sanchong Dist","snaen":"YouBike2.0_MRT Sanchong Elementary School Sta.","aren":"Ren’ai St./Ln. 11, Sec. 3, Sanhe Rd.","bemp":"42","act":"1"},{"sno":"500203035","sna":"YouBike2.0_碧華公園","tot":"30","sbi":"4","sarea":"三重區","mday":"20250922175002","lat":"25.08374","lng":"121.48749","ar":"溪尾街303號(對面公園)","sareaen":"Sanchong Dist","snaen":"YouBike2.0_Bihua Park","aren":"No.303, Xiwei St. (opposite)","bemp":"25","act":"1"},{"sno":"500203036","sna":"YouBike2.0_三重永豐公園","tot":"31","sbi":"7","sarea":"三重區","mday":"20250922192004","lat":"25.07463","lng":"121.47816","ar":"永福街197巷6之1號","sareaen":"Sanchong Dist","snaen":"YouBike2.0_San chong Yongfeng Park","aren":"No.6-1, Ln. 197, Yongfu St.","bemp":"23","act":"1"},{"sno":"500203037","sna":"YouBike2.0_先嗇宮","tot":"20","sbi":"8","sarea":"三重區","mday":"20250922155617","lat":"25.05119","lng":"121.47601","ar":"五谷王北街77號(後方停車場旁人行道)","sareaen":"Sanchong Dist","snaen":"YouBike2.0_Xianse Temple","aren":"No.77, Wuguwang N. St.","bemp":"12","act":"1"},{"sno":"500203038","sna":"YouBike2.0_中興北街42巷17弄","tot":"24","sbi":"22","sarea":"三重區","mday":"20250922182116","lat":"25.05006","lng":"121.46892","ar":"中興北街42巷17弄8號旁","sareaen":"Sanchong Dist","snaen":"YouBike2.0_Zhongxing N. St. 175 Ln","aren":"No.10, Ln. 175,Zhongxing N. St., Sanchong Dist.","bemp":"2","act":"1"},{"sno":"500203039","sna":"YouBike2.0_慈愛公園","tot":"23","sbi":"9","sarea":"三重區","mday":"20250922140402","lat":"25.08119","lng":"121.48461","ar":"仁愛街584號旁公園人行道","sareaen":"Sanchong Dist","snaen":"YouBike2.0_Ci'ai Park","aren":"No. 584, Ren’ai St., Sanchong Dist","bemp":"14","act":"1"},{"sno":"500203040","sna":"YouBike2.0_進安公園","tot":"24","sbi":"15","sarea":"三重區","mday":"20250922184004","lat":"25.08603","lng":"121.49377","ar":"仁義街258號至290號","sareaen":"Sanchong Dist","snaen":"YouBike2.0_Jinan Park","aren":"No.258 to No.290, Renyi St.","bemp":"9","act":"1"},{"sno":"500203041","sna":"YouBike2.0_三重五常公園","tot":"32","sbi":"1","sarea":"三重區","mday":"20250922141916","lat":"25.08065","lng":"121.49615","ar":"五華街7巷59號(旁)","sareaen":"Sanchong Dist","snaen":"YouBike2.0_Sanchong Wuchang Park","aren":"Ln. 7, Wuhua St., Sanchong Dist","bemp":"31","act":"1"},{"sno":"500203042","sna":"YouBike2.0_五福里(五華街)","tot":"39","sbi":"8","sarea":"三重區","mday":"20250922175002","lat":"25.08173","lng":"121.4939","ar":"五華街66號(對面)","sareaen":"Sanchong Dist","snaen":"YouBike2.0_Wufu Village (Wuhua St.)","aren":"No.64, Wuhua St. (opposite)","bemp":"31","act":"1"},{"sno":"500203043","sna":"YouBike2.0_碧華公園(集勇街)","tot":"36","sbi":"10","sarea":"三重區","mday":"20250922191915","lat":"25.08415","lng":"121.48554","ar":"仁安街2號(對面)","sareaen":"Sanchong Dist","snaen":"YouBike2.0_Bihua Park(Jiyong Rd.)","aren":"No.2, Ren’an St., Sanchong Dist.(opposite)","bemp":"26","act":"1"},{"sno":"500203044","sna":"YouBike2.0_新北高中","tot":"88","sbi":"24","sarea":"三重區","mday":"20250922175002","lat":"25.08723","lng":"121.48953","ar":"三信路1號(旁)","sareaen":"Sanchong Dist","snaen":"YouBike2.0_New Taipei Senior High School","aren":"No.1, Sanxin Rd.","bemp":"64","act":"1"},{"sno":"500203045","sna":"YouBike2.0_三重商工","tot":"77","sbi":"1","sarea":"三重區","mday":"20250922191215","lat":"25.06868","lng":"121.48071","ar":"中正北路163號(旁)","sareaen":"Sanchong Dist","snaen":"YouBike2.0_San-Chung Commercial and Industrial Vocational High School","aren":"Ln. 163, Zhongzheng N. Rd.","bemp":"75","act":"1"},{"sno":"500203046","sna":"YouBike2.0_二重國中","tot":"38","sbi":"9","sarea":"三重區","mday":"20250922184004","lat":"25.06596","lng":"121.48047","ar":"忠孝路三段75巷11號(對面)","sareaen":"Sanchong Dist","snaen":"YouBike2.0_Er Chung Junior High School","aren":"No.11, Ln. 75, Sec. 3, Zhongxiao Rd.(Opposite)","bemp":"29","act":"1"},{"sno":"500203047","sna":"YouBike2.0_自強溪尾街口","tot":"38","sbi":"10","sarea":"三重區","mday":"20250922165004","lat":"25.07822","lng":"121.49016","ar":"自強路四段55號(旁)","sareaen":"Sanchong Dist","snaen":"YouBike2.0_Ziqiang & Xiwei Intersection","aren":"No.55, Sec. 4, Ziqiang Rd.","bemp":"28","act":"1"},{"sno":"500203048","sna":"YouBike2.0_捷運三和國中站(1號出口)","tot":"95","sbi":"6","sarea":"三重區","mday":"20250922192004","lat":"25.07588","lng":"121.4878","ar":"三和路四段216號(旁)","sareaen":"Sanchong Dist","snaen":"YouBike2.0_MRT Sanhe Junior High School Sta.","aren":"No. 216, Sec. 4, Sanhe Rd.","bemp":"87","act":"1"},{"sno":"500203049","sna":"YouBike2.0_永盛公園","tot":"45","sbi":"19","sarea":"三重區","mday":"20250922192004","lat":"25.07613","lng":"121.4843","ar":"車路頭街/車路頭街139巷(東南側)","sareaen":"Sanchong Dist","snaen":"YouBike2.0_YongSheng Park","aren":"Ln. 139, Chelutou St.& Chelutou St. (Southeast)","bemp":"26","act":"1"},{"sno":"500203050","sna":"YouBike2.0_捷運先嗇宮站(2號出口)","tot":"64","sbi":"44","sarea":"三重區","mday":"20250922185004","lat":"25.04607","lng":"121.47099","ar":"重新路五段555號(對面)","sareaen":"Sanchong Dist","snaen":"YouBike2.0_MRT Xianse Temple Sta.(Exit.2)","aren":"No.555, Sec. 5, Chongxin Rd.(Opposite)","bemp":"20","act":"1"},{"sno":"500203051","sna":"YouBike2.0_藍天大樓","tot":"30","sbi":"8","sarea":"三重區","mday":"20250922184004","lat":"25.0531","lng":"121.47017","ar":"興德路129號(前)","sareaen":"Sanchong Dist","snaen":"YouBike2.0_Lantian Building","aren":"No.129, Xingde Rd., Sanchong Dist.","bemp":"22","act":"1"},{"sno":"500203052","sna":"YouBike2.0_中興北街175巷口","tot":"36","sbi":"20","sarea":"三重區","mday":"20250922185004","lat":"25.05595","lng":"121.46960","ar":"中興北街175巷8號(對面)","sareaen":"Sanchong Dist","snaen":"YouBike2.0_Zhongxing N. St. 175 Ln","aren":"No.8, Ln. 175,Zhongxing N. St., Sanchong Dist.(oppsite)","bemp":"16","act":"1"},{"sno":"500203053","sna":"YouBike2.0_同安公園","tot":"38","sbi":"7","sarea":"三重區","mday":"20250922164006","lat":"25.05732","lng":"121.49907","ar":"正義南路165號(對面)","sareaen":"Sanchong Dist","snaen":"YouBike2.0_Tong An Park","aren":"No.165, Zhengyi S. Rd. (Opposite)","bemp":"31","act":"1"},{"sno":"500203054","sna":"YouBike2.0_東海高中","tot":"31","sbi":"21","sarea":"三重區","mday":"20250922152403","lat":"25.06484","lng":"121.47942","ar":"忠孝路三段89號(旁)","sareaen":"Sanchong Dist","snaen":"YouBike2.0_Tung Hai Senior High School","aren":"No. 89, Sec. 3, Zhongxiao Rd., Sanchong Dist.","bemp":"10","act":"1"},{"sno":"500203055","sna":"YouBike2.0_二重國小","tot":"43","sbi":"13","sarea":"三重區","mday":"20250922185004","lat":"25.06598","lng":"121.47766","ar":"頂崁街/忠孝路三段96巷(東北側)","sareaen":"Sanchong Dist","snaen":"YouBike2.0_Er Chong Elementary School","aren":"Ln.96, Sec.3, Zhongxiao Rd.& Dingkan St. (Northeast)","bemp":"30","act":"1"},{"sno":"500203056","sna":"YouBike2.0_新北市立圖書館三重分館","tot":"52","sbi":"24","sarea":"三重區","mday":"20250922192517","lat":"25.0661","lng":"121.49553","ar":"自強路一段158號(旁)","sareaen":"Sanchong Dist","snaen":"YouBike2.0_New Taipei City Library Sanchong Branch","aren":"No.158, Sec. 1, Ziqiang Rd.","bemp":"28","act":"1"},{"sno":"500203057","sna":"YouBike2.0_龍門公園","tot":"48","sbi":"27","sarea":"三重區","mday":"20250922185004","lat":"25.07482","lng":"121.49848","ar":"公園街45號(對面)","sareaen":"Sanchong Dist","snaen":"YouBike2.0_Longmen Park","aren":"No.45, Gongyuan St.(Opposite)","bemp":"21","act":"1"},{"sno":"500203058","sna":"YouBike2.0_永福國小","tot":"30","sbi":"0","sarea":"三重區","mday":"20250811210203","lat":"25.07771","lng":"121.48032","ar":"永福街79號(對面)","sareaen":"Sanchong Dist","snaen":"YouBike2.0_Yong Fu Elementary School","aren":"No.79, Yongfu St.(Opposite)","bemp":"30","act":"0"},{"sno":"500203059","sna":"YouBike2.0_太陽公園","tot":"44","sbi":"10","sarea":"三重區","mday":"20250922164006","lat":"25.08645","lng":"121.4856","ar":"集英路67號(對面)","sareaen":"Sanchong Dist","snaen":"YouBike2.0_Taiyang Park","aren":"No.67, Jiying Rd.(Opposite)","bemp":"34","act":"1"},{"sno":"500203060","sna":"YouBike2.0_捷運三重站(3號出口)","tot":"33","sbi":"2","sarea":"三重區","mday":"20250922190020","lat":"25.05588","lng":"121.48474","ar":"捷運路/捷運路37巷","sareaen":"Sanchong Dist","snaen":"YouBike2.0_MRT Sanchong Sta. (Exit 3)","aren":"Jieyun Rd./Ln. 37, Jieyun Rd.","bemp":"31","act":"1"},{"sno":"500203061","sna":"YouBike2.0_仁愛街112巷","tot":"26","sbi":"1","sarea":"三重區","mday":"20250922190315","lat":"25.07486","lng":"121.49488","ar":"仁愛街112巷7號(對面)","sareaen":"Sanchong Dist","snaen":"YouBike2.0_Ln. 112, Renhua St.","aren":"No. 7, Ln. 112, Ren’ai St., Sanchong Dist.","bemp":"25","act":"1"},{"sno":"500203062","sna":"YouBike2.0_頂崁公園","tot":"24","sbi":"2","sarea":"三重區","mday":"20250922165615","lat":"25.05493","lng":"121.4756","ar":"頂文一街頂文二街口(東南側公園人行道)","sareaen":"Sanchong Dist","snaen":"YouBike2.0_Dingkan Park","aren":"Dingwen 1st & Dingwen 2nd St. Intersection","bemp":"22","act":"1"},{"sno":"500203063","sna":"YouBike2.0_重陽國小","tot":"61","sbi":"19","sarea":"三重區","mday":"20250922175002","lat":"25.06620","lng":"121.48488","ar":"力行路一段38巷/中正北路口","sareaen":"Sanchong Dist","snaen":"YouBike2.0_Chong Yang Elementary School","aren":"Zhongzheng N. Rd./Ln. 175, Sanmin St.","bemp":"41","act":"1"},{"sno":"500203064","sna":"YouBike2.0_力行地下停車場","tot":"20","sbi":"3","sarea":"三重區","mday":"20250922161003","lat":"25.07787","lng":"121.48287","ar":"永福街10巷8號(旁)","sareaen":"Sanchong Dist","snaen":"YouBike2.0_li xing Underground Parking Lot","aren":"No. 8, Lane 10, Yongfu St.","bemp":"15","act":"1"},{"sno":"500203065","sna":"YouBike2.0_三重親水公園","tot":"18","sbi":"9","sarea":"三重區","mday":"20250922184004","lat":"25.09114","lng":"121.49039","ar":"環河北路三段/吉祥街(東南側)","sareaen":"Sanchong Dist","snaen":"YouBike2.0_Triple hydrophilic Park","aren":"Section 3, Huanhe North Rd. & Jixiang St. (Southeast)","bemp":"9","act":"1"},{"sno":"500203066","sna":"YouBike2.0_中正北路193巷(愛買三重店)","tot":"37","sbi":"13","sarea":"三重區","mday":"20250922192004","lat":"25.07136","lng":"121.47599","ar":"中正北路193巷45號","sareaen":"Sanchong Dist","snaen":"YouBike2.0_Lane 193, Zhongzheng North Rd. (a.mart Sanchong)","aren":"No. 45, Lane 193, Zhongzheng North Rd.","bemp":"24","act":"1"},{"sno":"500203067","sna":"YouBike2.0_三重商工地下停車場","tot":"64","sbi":"2","sarea":"三重區","mday":"20250922190215","lat":"25.06966","lng":"121.48352","ar":"力行路一段183號(對面)","sareaen":"Sanchong Dist","snaen":"YouBike2.0_San-Chung Commercial and Industrial Vocational High School basement parking","aren":"No. 183, Sec. 1, Lixing Rd. (Opposite)","bemp":"62","act":"1"},{"sno":"500203068","sna":"YouBike2.0_三重棒球場","tot":"25","sbi":"14","sarea":"三重區","mday":"20250922184004","lat":"25.0613","lng":"121.4815","ar":"新北大道一段157號(對面)","sareaen":"Sanchong Dist","snaen":"YouBike2.0_Sanchong Baseball Court","aren":"No. 157, New Taipei Blvd.(Opposite)","bemp":"11","act":"1"},{"sno":"500203069","sna":"YouBike2.0_溪尾街196巷/仁美街口","tot":"18","sbi":"1","sarea":"三重區","mday":"20250922191116","lat":"25.0802","lng":"121.48587","ar":"溪尾街196巷38號(旁)","sareaen":"Sanchong Dist","snaen":"YouBike2.0_Ln. 196, Xiwei St. & Renmei St. Intersection","aren":"No. 38, Ln. 196, Xiwei St.","bemp":"17","act":"1"},{"sno":"500203070","sna":"YouBike2.0_六張公園","tot":"42","sbi":"16","sarea":"三重區","mday":"20250922180916","lat":"25.06966","lng":"121.49405","ar":"民生東街/安慶街149巷(西北側)","sareaen":"Sanchong Dist","snaen":"YouBike2.0_Liuzhang Park","aren":"No.21, Ln. 149, Anqing St.(oppsite)","bemp":"26","act":"1"},{"sno":"500203071","sna":"YouBike2.0_自然公園","tot":"22","sbi":"4","sarea":"三重區","mday":"20250922184004","lat":"25.08984","lng":"121.48799","ar":"集賢路158號(旁)","sareaen":"Sanchong Dist","snaen":"YouBike2.0_Natural Park","aren":"Ruyi St./Jixian Rd.","bemp":"18","act":"1"},{"sno":"500203072","sna":"YouBike2.0_仁美街/三和路四段145巷口","tot":"12","sbi":"1","sarea":"三重區","mday":"20250922184216","lat":"25.07872","lng":"121.48636","ar":"三和路四段145巷81號","sareaen":"Sanchong Dist","snaen":"YouBike2.0_Renmei St. & Ln. 145, Sec. 4, Sanhe Rd. Intersection","aren":"No. 81, Ln. 145, Sec. 4, Sanhe Rd.","bemp":"11","act":"1"},{"sno":"500203073","sna":"YouBike2.0_光明市場","tot":"27","sbi":"24","sarea":"三重區","mday":"20250922142915","lat":"25.05734","lng":"121.49181","ar":"光明路67-1號南側","sareaen":"Sanchong Dist","snaen":"YouBike2.0_Guangming Market","aren":"No. 67-1, Guangming Rd.(South)","bemp":"3","act":"1"},{"sno":"500203074","sna":"YouBike2.0_元富一街/仁義街79巷口","tot":"15","sbi":"3","sarea":"三重區","mday":"20250922150602","lat":"25.08006","lng":"121.49955","ar":"元富一街/仁義街79巷(東側)","sareaen":"Sanchong Dist","snaen":"YouBike2.0_Yuanfu 1st. St. & Ln. 79, Renyi St.","aren":"Yuanfu 1st. St. & Ln. 79, Renyi St.(East)","bemp":"12","act":"1"},{"sno":"500203075","sna":"YouBike2.0_國隆大仁街口","tot":"17","sbi":"5","sarea":"三重區","mday":"20250922185004","lat":"25.06468","lng":"121.492","ar":"大仁街23號(對面)","sareaen":"Sanchong Dist","snaen":"YouBike2.0_Guolong Daren St. Intersection","aren":"No. 23, Daren St.(Opposite)","bemp":"12","act":"1"},{"sno":"500203076","sna":"YouBike2.0_三和慈愛街口","tot":"11","sbi":"1","sarea":"三重區","mday":"20250922190515","lat":"25.07814","lng":"121.48417","ar":"三和路四段141號(前)","sareaen":"Sanchong Dist","snaen":"YouBike2.0_Sanhe Ci'ai St. Intersection","aren":"No. 141, Sec. 4, Sanhe Rd.","bemp":"10","act":"1"},{"sno":"500203077","sna":"YouBike2.0_三重社會福利服務中心","tot":"11","sbi":"2","sarea":"三重區","mday":"20250922192004","lat":"25.07781","lng":"121.49128","ar":"福隆路59號(對面)","sareaen":"Sanchong Dist","snaen":"YouBike2.0_Sanchong Social Welfare Center","aren":"No. 59, Fulong Rd.(Opposite)","bemp":"9","act":"1"},{"sno":"500203078","sna":"YouBike2.0_捷運三和國中站(2號出口)","tot":"17","sbi":"0","sarea":"三重區","mday":"20250922191416","lat":"25.07703","lng":"121.48635","ar":"三和路四段109-1號(對面)","sareaen":"Sanchong Dist","snaen":"YouBike2.0_MRT Sanhe Junior High School Sta.(Exit 2)","aren":"No. 109-1, Sec. 4, Sanhe Rd.(Opposite)","bemp":"17","act":"1"},{"sno":"500203079","sna":"YouBike2.0_三和龍門路口","tot":"18","sbi":"6","sarea":"三重區","mday":"20250922161003","lat":"25.0718","lng":"121.4949","ar":"三和路三段61號(前)","sareaen":"Sanchong Dist","snaen":"YouBike2.0_Sanhe Longmen Rd. Intersection","aren":"No. 61, Sec. 3, Sanhe Rd.","bemp":"11","act":"1"},{"sno":"500203080","sna":"YouBike2.0_元信二仁愛街口","tot":"20","sbi":"7","sarea":"三重區","mday":"20250922155003","lat":"25.07709","lng":"121.49417","ar":"仁愛街190號(對面)","sareaen":"Sanchong Dist","snaen":"YouBike2.0_Yuanxin 2nd & Ren'ai St. Intersection","aren":"No. 190, Ren'ai St.(Opposite)","bemp":"13","act":"1"},{"sno":"500203081","sna":"YouBike2.0_力行路二段91巷口","tot":"13","sbi":"1","sarea":"三重區","mday":"20250922163315","lat":"25.07583","lng":"121.48255","ar":"力行路二段93號(前)","sareaen":"Sanchong Dist","snaen":"YouBike2.0_Ln. 91, Sec. 2, Lixing Rd. Intersection","aren":"No. 93, Sec. 2, Lixing Rd.","bemp":"12","act":"1"},{"sno":"500203082","sna":"YouBike2.0_永福國小(永福街72巷)","tot":"22","sbi":"7","sarea":"三重區","mday":"20250922192004","lat":"25.07657","lng":"121.47985","ar":"永福街72巷23號(對面)","sareaen":"Sanchong Dist","snaen":"YouBike2.0_Yongfu Elementary School(Ln. 72, Yongfu St.)","aren":"No. 23, Ln. 72, Yongfu St.(Opposite)","bemp":"15","act":"1"},{"sno":"500203083","sna":"YouBike2.0_格致中學","tot":"24","sbi":"1","sarea":"三重區","mday":"20250922192517","lat":"25.07403","lng":"121.48907","ar":"大智街260號(前)","sareaen":"Sanchong Dist","snaen":"YouBike2.0_Ger-jyh Senior High School","aren":"No. 260, Dazhi St.","bemp":"23","act":"1"},{"sno":"500203084","sna":"YouBike2.0_三重派出所","tot":"15","sbi":"0","sarea":"三重區","mday":"20250922192316","lat":"25.06395","lng":"121.5023","ar":"重新路一段43號(旁)","sareaen":"Sanchong Dist","snaen":"YouBike2.0_Sanchong Police Substation","aren":"No. 43, Sec. 1, Chongxin Rd.","bemp":"15","act":"1"},{"sno":"500203085","sna":"YouBike2.0_重陽橋市民活動中心","tot":"15","sbi":"8","sarea":"三重區","mday":"20250922160202","lat":"25.08634","lng":"121.49602","ar":"環河北路三段/集賢路(西北側)","sareaen":"Sanchong Dist","snaen":"YouBike2.0_Chongyang Bridge Civil Activity Center","aren":"Sec. 3, Huanhe N. Rd. &Jixian Rd.(Northwest)","bemp":"7","act":"1"},{"sno":"500203086","sna":"YouBike2.0_二重埔市民活動中心","tot":"30","sbi":"15","sarea":"三重區","mday":"20250922161003","lat":"25.06622","lng":"121.47492","ar":"水漾路二段131號(南側)","sareaen":"Sanchong Dist","snaen":"YouBike2.0_Erchongpu Civil Activity Center","aren":"No. 12-1, Dayou St.","bemp":"15","act":"1"},{"sno":"500203087","sna":"YouBike2.0_神農街/光復路二段129巷口","tot":"14","sbi":"1","sarea":"三重區","mday":"20250922191317","lat":"25.05899","lng":"121.47409","ar":"光復路二段87巷10-12號(旁)","sareaen":"Sanchong Dist","snaen":"YouBike2.0_Shennong St. & Ln. 129, Sec. 2, Guangfu Rd. Intersection","aren":"No. 10-12, Ln. 87, Sec. 2, Guangfu Rd., Sanchong Dist.(side)","bemp":"13","act":"1"},{"sno":"500203088","sna":"YouBike2.0_光榮國中(秀江街)","tot":"20","sbi":"1","sarea":"三重區","mday":"20250922171316","lat":"25.07221","lng":"121.49994","ar":"秀江街107號(對面)","sareaen":"Sanchong Dist","snaen":"YouBike2.0_Guangrong Junior High School(Xiujiang St.)","aren":"No. 107, Xiujiang St., Sanchong Dist.(opposite)","bemp":"19","act":"1"},{"sno":"500203089","sna":"YouBike2.0_神農興德路口(恆美社區)","tot":"40","sbi":"2","sarea":"三重區","mday":"20250922190215","lat":"25.05333","lng":"121.47427","ar":"神農路/興德路(東南側)","sareaen":"Sanchong Dist","snaen":"YouBike2.0_Shennong St. & Xingde Rd. Intersection","aren":"Shennong Rd. & Xingde Rd. Intersection(Southeast)","bemp":"38","act":"1"},{"sno":"500203090","sna":"YouBike2.0_正義國小地下停車場","tot":"13","sbi":"4","sarea":"三重區","mday":"20250922182517","lat":"25.06492","lng":"121.49491","ar":"大智街22號(對面)","sareaen":"Sanchong Dist","snaen":"YouBike2.0_No. 22, Dazhi St.(Opposite)","aren":"No. 22, Dazhi St.(Opposite)","bemp":"9","act":"1"},{"sno":"500203091","sna":"YouBike2.0_群光公園","tot":"15","sbi":"10","sarea":"三重區","mday":"20250922161117","lat":"25.05604","lng":"121.47404","ar":"頂文路/神農街(西北側)","sareaen":"Sanchong Dist","snaen":"YouBike2.0_Qunguang Park","aren":"Dingwen Rd. & Shennong St. Intersection(Northwest)","bemp":"5","act":"1"},{"sno":"500203092","sna":"YouBike2.0_仁信段平面停車場","tot":"12","sbi":"3","sarea":"三重區","mday":"20250922192004","lat":"25.07914","lng":"121.49629","ar":"元信二街/元信二街202巷(東南側)","sareaen":"Sanchong Dist","snaen":"YouBike2.0_Renxin Parking Lot","aren":"Yuanxin 2nd St. & Ln. 202, Yuanxin 2nd St. Intersection(Southeast)","bemp":"9","act":"1"},{"sno":"500203093","sna":"YouBike2.0_中正北路25巷(交響院社區)","tot":"40","sbi":"0","sarea":"三重區","mday":"20250922191018","lat":"25.06318","lng":"121.49185","ar":"中正北路29號","sareaen":"Sanchong Dist","snaen":"YouBike2.0_Ln.25, Zhongzheng Rd.","aren":"No. 29, Zhongzheng N. Rd.","bemp":"40","act":"1"},{"sno":"500203094","sna":"YouBike2.0_興穀國小","tot":"35","sbi":"9","sarea":"三重區","mday":"20250922165004","lat":"25.04937","lng":"121.47421","ar":"神農街/五谷王北街42巷(東北側)","sareaen":"Sanchong Dist","snaen":"YouBike2.0_Xinggu Elementary School","aren":"Shennong St. & Ln. 42, Wuguwang N. St.(Northeast)","bemp":"26","act":"1"},{"sno":"500203095","sna":"YouBike2.0_三重區停八停車場","tot":"17","sbi":"7","sarea":"三重區","mday":"20250922080417","lat":"25.05365","lng":"121.47621","ar":"興德路55號南側","sareaen":"Sanchong Dist","snaen":"YouBike2.0_Parking Lot No.8, Sanchong","aren":"No. 55, Xingde Rd.(South)","bemp":"10","act":"1"},{"sno":"500203096","sna":"YouBike2.0_國道車路頭街口","tot":"20","sbi":"3","sarea":"三重區","mday":"20250922184004","lat":"25.07307","lng":"121.48424","ar":"國道路一段39巷1號對面","sareaen":"Sanchong Dist","snaen":"YouBike2.0_Guodao Rd. & Chelutou St. Intersection","aren":"No.1, Ln.39, Sec.1, Guodao Rd. (opposite)","bemp":"17","act":"1"},{"sno":"500203097","sna":"YouBike2.0_仁愛街422巷口","tot":"17","sbi":"7","sarea":"三重區","mday":"20250922192004","lat":"25.08153","lng":"121.49026","ar":"仁愛街423-1號對面","sareaen":"Sanchong Dist","snaen":"YouBike2.0_Ln.422, Ren'ai St.","aren":"No. 423-1, Ren'ai St. (opposite)","bemp":"10","act":"1"},{"sno":"500203098","sna":"YouBike2.0_德厚公園","tot":"15","sbi":"1","sarea":"三重區","mday":"20250922074003","lat":"25.04883","lng":"121.47809","ar":"重新路五段/重新路五段317巷(東南側)","sareaen":"Sanchong Dist","snaen":"YouBike2.0_Dehou Park","aren":"Sec. 5, Chongxin Rd. & Ln. 317, Sec. 5, Chongxin Rd. (Southeast)","bemp":"14","act":"1"},{"sno":"500203099","sna":"YouBike2.0_永德市民活動中心","tot":"20","sbi":"1","sarea":"三重區","mday":"20250922182616","lat":"25.07285","lng":"121.48842","ar":"永德街37號(對側)","sareaen":"Sanchong Dist","snaen":"YouBike2.0_Yongde Civil Activity Center","aren":"No. 37, Yongde St. (Opposite)","bemp":"18","act":"1"},{"sno":"500203100","sna":"YouBike2.0_龍濱公園","tot":"14","sbi":"6","sarea":"三重區","mday":"20250922185118","lat":"25.07298","lng":"121.50218","ar":"秀江街28號(對面)","sareaen":"Sanchong Dist","snaen":"YouBike2.0_Longbin Park","aren":"No. 28, Xiujiang St. (Opposite)","bemp":"8","act":"1"},{"sno":"500203101","sna":"YouBike2.0_簡仔舍街(河家歡社區)","tot":"40","sbi":"18","sarea":"三重區","mday":"20250922184004","lat":"25.05138","lng":"121.48652","ar":"簡仔舍街","sareaen":"Sanchong Dist","snaen":"YouBike2.0_Jianzaishe St.","aren":"Jianzaishe St.","bemp":"22","act":"1"},{"sno":"500203102","sna":"YouBike2.0_碧華國中(三賢街)","tot":"30","sbi":"8","sarea":"三重區","mday":"20250922184004","lat":"25.08861","lng":"121.48832","ar":"三賢街101號(對面)","sareaen":"Sanchong Dist","snaen":"YouBike2.0_Bi-Hua Junior High School (Sanxian St.)","aren":"No. 101, Sanxian St. (Opposite)","bemp":"22","act":"1"},{"sno":"500203103","sna":"YouBike2.0_溪尾街(國道橋下)","tot":"15","sbi":"5","sarea":"三重區","mday":"20250922175002","lat":"25.07486","lng":"121.49151","ar":"溪尾街12號旁(國道橋下)","sareaen":"Sanchong Dist","snaen":"YouBike2.0_Xiwei St. (Under Freeway)","aren":"No. 12, Xiwei St. (Side ,Under Freeway)","bemp":"10","act":"1"},{"sno":"500203104","sna":"YouBike2.0_重新路五段(心天匯社區)","tot":"40","sbi":"4","sarea":"三重區","mday":"20250922185004","lat":"25.04468","lng":"121.46815","ar":"重新路五段613號(對面)","sareaen":"Sanchong Dist","snaen":"YouBike2.0_Sec. 5, Chongxin Rd.","aren":"No. 613, Sec. 5, Chongxin Rd. (Opposite)","bemp":"36","act":"1"},{"sno":"500203105","sna":"YouBike2.0_興德路134號(前)","tot":"20","sbi":"17","sarea":"三重區","mday":"20250922173815","lat":"25.05287","lng":"121.47102","ar":"興德路134號(前)","sareaen":"Sanchong Dist","snaen":"YouBike2.0_No. 134, Xingde Rd.","aren":"No. 134, Xingde Rd. (Front)","bemp":"3","act":"1"},{"sno":"500203106","sna":"YouBike2.0_自強臨時平面停車場","tot":"21","sbi":"1","sarea":"三重區","mday":"20250922152301","lat":"25.08229","lng":"121.49515","ar":"自強路五段89號(對面)","sareaen":"Sanchong Dist","snaen":"YouBike2.0_Ziqiang Parking Lot","aren":"No. 89, Sec. 5, Ziqiang Rd. (Opposite)","bemp":"20","act":"1"},{"sno":"500203107","sna":"YouBike2.0_仁義街26巷","tot":"17","sbi":"5","sarea":"三重區","mday":"20250922190616","lat":"25.07740","lng":"121.49811","ar":"元富二街2-20號(對面)","sareaen":"Sanchong Dist","snaen":"YouBike2.0_Ln. 26, Renyi St.","aren":"No. 2-20, Yuanfu 2nd St. (Opposite)","bemp":"12","act":"1"},{"sno":"500203108","sna":"YouBike2.0_中正北重陽路口","tot":"12","sbi":"1","sarea":"三重區","mday":"20250922182815","lat":"25.06417","lng":"121.48736","ar":"中正北路42號(對面)","sareaen":"Sanchong Dist","snaen":"YouBike2.0_Zhongzheng N. Rd. & Chongyang Rd. Intersection","aren":"No. 42, Zhongzheng N. Rd. (Opposite)","bemp":"11","act":"1"},{"sno":"500203109","sna":"YouBike2.0_光復路一段15巷口","tot":"17","sbi":"9","sarea":"三重區","mday":"20250922192004","lat":"25.04751","lng":"121.47213","ar":"光復路一段19號(前)","sareaen":"Sanchong Dist","snaen":"YouBike2.0_Ln. 15, Sec. 1, Guangfu Rd. Intersection","aren":"No. 19, Sec. 1, Guangfu Rd. (Front)","bemp":"8","act":"1"},{"sno":"500203111","sna":"YouBike2.0_光復路一段99巷口","tot":"18","sbi":"2","sarea":"三重區","mday":"20250922182717","lat":"25.05109","lng":"121.47209","ar":"光復路一段101號(前)","sareaen":"Sanchong Dist","snaen":"YouBike2.0_No. 101, Sec. 1, Guangfu Rd. (Front)","aren":"No. 101, Sec. 1, Guangfu Rd. (Front)","bemp":"16","act":"1"},{"sno":"500203112","sna":"YouBike2.0_光復興德路口(東南側)","tot":"18","sbi":"1","sarea":"三重區","mday":"20250922184416","lat":"25.05251","lng":"121.47210","ar":"光復路一段121號(前)","sareaen":"Sanchong Dist","snaen":"YouBike2.0_Guangfu Rd. & Xingde Rd. Intersection (Southeast)","aren":"No. 121, Sec. 1, Guangfu Rd. (Front)","bemp":"16","act":"1"},{"sno":"500203113","sna":"YouBike2.0_光復路二段42巷口","tot":"18","sbi":"5","sarea":"三重區","mday":"20250922192004","lat":"25.05452","lng":"121.47203","ar":"光復路二段30號(前)","sareaen":"Sanchong Dist","snaen":"YouBike2.0_Ln. 42, Sec. 2, Guangfu Rd. Intersection","aren":"No. 30, Sec. 2, Guangfu Rd. (Front)","bemp":"13","act":"1"},{"sno":"500203114","sna":"YouBike2.0_光復中興北街175巷口(西北側)","tot":"18","sbi":"6","sarea":"三重區","mday":"20250922190715","lat":"25.05676","lng":"121.47205","ar":"光復路二段74號(前)","sareaen":"Sanchong Dist","snaen":"YouBike2.0_Guangfu Rd. & Ln. 175, Zhongxing N. St. Intersection (Northwest)","aren":"No. 74, Sec. 2, Guangfu Rd. (Front)","bemp":"12","act":"1"},{"sno":"500203115","sna":"YouBike2.0_集美街58巷口(東北側)","tot":"16","sbi":"9","sarea":"三重區","mday":"20250922192004","lat":"25.05500","lng":"121.48833","ar":"集美街18號(前)","sareaen":"Sanchong Dist","snaen":"YouBike2.0_No. 18, Jimei St. (Front)","aren":"No. 18, Jimei St. (Front)","bemp":"7","act":"1"},{"sno":"500203116","sna":"YouBike2.0_三和路四段73號旁","tot":"15","sbi":"4","sarea":"三重區","mday":"20250922175002","lat":"25.07513","lng":"121.48977","ar":"三和路四段73號(旁)","sareaen":"Sanchong Dist","snaen":"YouBike2.0_No. 73, Sec. 4, Sanhe Rd. (Side)","aren":"No. 73, Sec. 4, Sanhe Rd. (Side)","bemp":"10","act":"1"},{"sno":"500203117","sna":"YouBike2.0_三信集英路口","tot":"13","sbi":"2","sarea":"三重區","mday":"20250922171217","lat":"25.08563","lng":"121.48748","ar":"集英路1-15號(旁)","sareaen":"Sanchong Dist","snaen":"YouBike2.0_Sanxin Rd. & Jiying Rd. Intersection","aren":"No. 1-15, Jiying Rd. (Side)","bemp":"11","act":"1"},{"sno":"500203118","sna":"YouBike2.0_慈化公園","tot":"16","sbi":"6","sarea":"三重區","mday":"20250922152201","lat":"25.08461","lng":"121.48864","ar":"溪尾街327號(旁)","sareaen":"Sanchong Dist","snaen":"YouBike2.0_Cihua Park","aren":"No. 327, Xiwei St. (Side)","bemp":"10","act":"1"},{"sno":"500203119","sna":"YouBike2.0_三張地下停車場","tot":"22","sbi":"13","sarea":"三重區","mday":"20250922165315","lat":"25.07054","lng":"121.48981","ar":"三張街87號(對面)","sareaen":"Sanchong Dist","snaen":"YouBike2.0_SanZhang Car Park","aren":"No. 87, SanZhang St. (Opposite)","bemp":"9","act":"1"},{"sno":"500203120","sna":"YouBike2.0_仁愛仁和街口","tot":"15","sbi":"13","sarea":"三重區","mday":"20250922184004","lat":"25.07354","lng":"121.49569","ar":"仁愛街/仁和街口","sareaen":"Sanchong Dist","snaen":"YouBike2.0_RenAi St. & RenHe St. Intersection","aren":"RenAi St. & RenHe St. Intersection","bemp":"2","act":"1"},{"sno":"500203121","sna":"YouBike2.0_修德國小(重陽路三段)","tot":"22","sbi":"10","sarea":"三重區","mday":"20250922184004","lat":"25.06620","lng":"121.48895","ar":"重陽路三段/重陽路三段5巷(南側)","sareaen":"Sanchong Dist","snaen":"YouBike2.0_Sioude Elementary School (Sec. 3, ChongYang Rd.)","aren":"Ln. 5, Sec. 3, ChongYang Rd. (South)","bemp":"12","act":"1"},{"sno":"500203122","sna":"YouBike2.0_三重重陽公園","tot":"15","sbi":"0","sarea":"三重區","mday":"20250922192316","lat":"25.05753","lng":"121.48367","ar":"朝陽街57巷","sareaen":"Sanchong Dist","snaen":"YouBike2.0_SanChong District Chong Yang Park","aren":"Ln. 57, ChaoYang St.","bemp":"15","act":"1"},{"sno":"500203123","sna":"YouBike2.0_三和國中(自強路三段110巷)","tot":"22","sbi":"6","sarea":"三重區","mday":"20250922185004","lat":"25.07480","lng":"121.48694","ar":"自強路三段110巷15-2號(對側)","sareaen":"Sanchong Dist","snaen":"YouBike2.0_Sanhe Junior High School (Ln. 110, Sec. 3, ZiQiang Rd.)","aren":"No. 15-2, Ln. 110, Sec. 3, ZiQiang Rd. (Opposite)","bemp":"16","act":"1"},{"sno":"500203124","sna":"YouBike2.0_頂崁街210巷28弄口","tot":"15","sbi":"1","sarea":"三重區","mday":"20250922165817","lat":"25.06803","lng":"121.47586","ar":"頂崁街210巷26號(旁)","sareaen":"Sanchong Dist","snaen":"YouBike2.0_Aly. 28, Ln. 210, DingKan St. Intersection","aren":"No. 26, Ln. 210, DingKan St. (Side)","bemp":"14","act":"1"},{"sno":"500203125","sna":"YouBike2.0_河邊北街100巷口","tot":"20","sbi":"2","sarea":"三重區","mday":"20250922111202","lat":"25.07043","lng":"121.50404","ar":"河邊北街/河邊北街100巷(高架橋下)","sareaen":"Sanchong Dist","snaen":"YouBike2.0_Ln.100, HeBian N. St.","aren":"HeBian N. St./Ln.100, HeBian N. St.","bemp":"18","act":"1"},{"sno":"500203128","sna":"YouBike2.0_谷王公園","tot":"18","sbi":"9","sarea":"三重區","mday":"20250922184004","lat":"25.05283","lng":"121.47718","ar":"五谷王北街157號後方(公園南側及東側)","sareaen":"Sanchong Dist","snaen":"YouBike2.0_GuWang Park","aren":"No. 157, WuGuWang N. St. (Behind)","bemp":"9","act":"1"},{"sno":"500203129","sna":"YouBike2.0_仁義街37巷元富一街口","tot":"40","sbi":"15","sarea":"三重區","mday":"20250922090402","lat":"25.07785","lng":"121.50030","ar":"仁義街37巷/元富一街口(公園內)","sareaen":"Sanchong Dist","snaen":"YouBike2.0_Ln. 37, RenYi St. & YuanFu 1st St. Intersection","aren":"Ln. 37, RenYi St. & YuanFu 1st St. Intersection","bemp":"25","act":"1"},{"sno":"500203130","sna":"YouBike2.0_仁信段平面停車場(元信一街)","tot":"30","sbi":"11","sarea":"三重區","mday":"20250922105003","lat":"25.07791","lng":"121.49692","ar":"元信一街161號(對側)","sareaen":"Sanchong Dist","snaen":"YouBike2.0_Renxin Car Park (YuanXin 1st St.)","aren":"No. 161, YuanXin 1st St. (Opposite)","bemp":"19","act":"1"},{"sno":"500203131","sna":"YouBike2.0_三重忠孝公園","tot":"28","sbi":"3","sarea":"三重區","mday":"20250922123003","lat":"25.06325","lng":"121.47932","ar":"忠孝路三段127巷5號(對側)","sareaen":"Sanchong Dist","snaen":"YouBike2.0_SanChong ZhongXiao Park","aren":"No. 5, Ln. 127, Sec. 3, ZhongXiao Rd. (Opposite)","bemp":"25","act":"1"},{"sno":"500203132","sna":"YouBike2.0_三重環河陸橋","tot":"16","sbi":"1","sarea":"三重區","mday":"20250922183916","lat":"25.08149","lng":"121.49943","ar":"環河北路二段/元信三街口","sareaen":"Sanchong Dist","snaen":"YouBike2.0_SanChong HuanHe Footbridge","aren":"Sec. 2, HuanHe N. Rd. & YuanXin 3rd St.","bemp":"14","act":"1"},{"sno":"500205001","sna":"YouBike2.0_恩主公醫院","tot":"54","sbi":"1","sarea":"三峽區","mday":"20250922192417","lat":"24.93891","lng":"121.36355","ar":"復興路399號東北側","sareaen":"Sanxia Dist","snaen":"YouBike2.0_En Chu Kong Hospital","aren":"No.399, Fuxing Rd.(Northeast)","bemp":"53","act":"1"},{"sno":"500205002","sna":"YouBike2.0_安溪國小","tot":"27","sbi":"2","sarea":"三峽區","mday":"20250922152005","lat":"24.93122","lng":"121.37265","ar":"中華路42號","sareaen":"Sanxia Dist","snaen":"YouBike2.0_Anxi Elementary School","aren":"No.42, Zhonghua Rd., Sanxia Dist.","bemp":"25","act":"1"},{"sno":"500205003","sna":"YouBike2.0_介壽國小","tot":"26","sbi":"16","sarea":"三峽區","mday":"20250922113002","lat":"24.93026","lng":"121.37912","ar":"大同路1號(北側)","sareaen":"Sanxia Dist","snaen":"YouBike2.0_Jieshou Elementary School","aren":"No. 1, Datong Rd. (North)","bemp":"10","act":"1"},{"sno":"500205004","sna":"YouBike2.0_安溪國中","tot":"20","sbi":"6","sarea":"三峽區","mday":"20250922185004","lat":"24.92638","lng":"121.37185","ar":"大同路135號(西側)","sareaen":"Sanxia Dist","snaen":"YouBike2.0_Anxi Junior high School","aren":"No. 135, Datong Rd. (West)","bemp":"14","act":"1"},{"sno":"500205005","sna":"YouBike2.0_三峽國光青年社會住宅","tot":"30","sbi":"8","sarea":"三峽區","mday":"20250922175002","lat":"24.93743","lng":"121.37686","ar":"三樹路5號西北側","sareaen":"Sanxia Dist","snaen":"YouBike2.0_Sanxia Guoguang Youth Rental House","aren":"No. 5, Sanshu Rd. (Northwest)","bemp":"22","act":"1"},{"sno":"500205006","sna":"YouBike2.0_三峽區公所(三峽老街)","tot":"33","sbi":"14","sarea":"三峽區","mday":"20250922184004","lat":"24.9339","lng":"121.36929","ar":"民權街36號南側","sareaen":"Sanxia Dist","snaen":"YouBike2.0_Sanxia District Office(Sanxia Old Street)","aren":"No. 36, Minquan St. (South)","bemp":"19","act":"1"},{"sno":"500205007","sna":"YouBike2.0_中園國小","tot":"20","sbi":"3","sarea":"三峽區","mday":"20250922102503","lat":"24.927562225588048","lng":"121.3667403505291","ar":"弘園街22號","sareaen":"Sanxia Dist","snaen":"YouBike2.0_Zhongyuan elementary school","aren":"No.22, Hongyuan St., Sanxia Dist","bemp":"17","act":"1"},{"sno":"500205008","sna":"YouBike2.0_復興民生街口","tot":"24","sbi":"15","sarea":"三峽區","mday":"20250922185004","lat":"24.936959752151225","lng":"121.37339809342713","ar":"復興路45號(前)","sareaen":"Sanxia Dist","snaen":"YouBike2.0_Fuxing & Minsheng St. Intersection","aren":"No. 45, Fuxing Rd., Sanxia Dist.","bemp":"9","act":"1"},{"sno":"500205009","sna":"YouBike2.0_三峽國中","tot":"34","sbi":"3","sarea":"三峽區","mday":"20250922175815","lat":"24.9389","lng":"121.369","ar":"復興路238號(前人行道)","sareaen":"Sanxia Dist","snaen":"YouBike2.0_Sanxia Junior High School","aren":"No. 238, Fuxing Rd. (front)","bemp":"31","act":"1"},{"sno":"500205010","sna":"YouBike2.0_海洋公園","tot":"25","sbi":"4","sarea":"三峽區","mday":"20250922165004","lat":"24.94776","lng":"121.37676","ar":"大義路277號","sareaen":"Sanxia Dist","snaen":"YouBike2.0_Ocean Park","aren":"No. 277, Dayi Rd.","bemp":"21","act":"1"},{"sno":"500205011","sna":"YouBike2.0_龍埔國小","tot":"35","sbi":"17","sarea":"三峽區","mday":"20250922160202","lat":"24.94104","lng":"121.37676","ar":"大學路47號對側","sareaen":"Sanxia Dist","snaen":"YouBike2.0_Longpu elementary school","aren":"No.47, Daxue Rd., Sanxia Dist.","bemp":"18","act":"1"},{"sno":"500205012","sna":"YouBike2.0_國立臺北大學(三峽校區)","tot":"63","sbi":"1","sarea":"三峽區","mday":"20250922191215","lat":"24.94594","lng":"121.3729","ar":"大學路160號(對側)","sareaen":"Sanxia Dist","snaen":"YouBike2.0_National Taipei University(Sanxia Campus)","aren":"No.160, Daxue Rd.(Opposite)","bemp":"62","act":"1"},{"sno":"500205013","sna":"YouBike2.0_三鶯國民運動中心","tot":"17","sbi":"1","sarea":"三峽區","mday":"20250922165615","lat":"24.93697","lng":"121.36858","ar":"文化路210巷15號(對面)","sareaen":"Sanxia Dist","snaen":"YouBike2.0_Sanying Civil Sports Center","aren":"No.15, Ln. 210, Wenhua Rd., Sanxia Dist.","bemp":"16","act":"1"},{"sno":"500205014","sna":"YouBike2.0_臺北大學(音律資訊大樓)","tot":"55","sbi":"13","sarea":"三峽區","mday":"20250922192004","lat":"24.94278","lng":"121.36992","ar":"圖資大道/法政路口(東南側)","sareaen":"Sanxia Dist","snaen":"YouBike2.0_NTPU(Computer Center)","aren":"Tuzi Blvd. & Fazheng Rd. Intersection(Southeast)","bemp":"42","act":"1"},{"sno":"500205015","sna":"YouBike2.0_臺北大學體育館","tot":"22","sbi":"7","sarea":"三峽區","mday":"20250922185004","lat":"24.93974","lng":"121.36688","ar":"大學路151號(台北大學體育館前)","sareaen":"Sanxia Dist","snaen":"YouBike2.0_National Taipei University(stadium)","aren":"No. 151, Daxue Rd.(National Taipei University(stadium)","bemp":"15","act":"1"},{"sno":"500205016","sna":"YouBike2.0_中華愛國路口","tot":"10","sbi":"1","sarea":"三峽區","mday":"20250922155003","lat":"24.9327","lng":"121.37462","ar":"愛國路71號(旁)","sareaen":"Sanxia Dist","snaen":"YouBike2.0_Zhonghua Ai'guo Rd. Intersection","aren":"No. 71, Ai'guo Rd","bemp":"9","act":"1"},{"sno":"500205017","sna":"YouBike2.0_中山科學研究院","tot":"14","sbi":"7","sarea":"三峽區","mday":"20250920043003","lat":"24.90328","lng":"121.35512","ar":"中正路3段1號(前)","sareaen":"Sanxia Dist","snaen":"YouBike2.0_National Chung-Shan Institute of Science & Technology","aren":"No. 1, Section 3, Zhongzheng Rd.(Front)","bemp":"7","act":"1"},{"sno":"500205018","sna":"YouBike2.0_學成大義路口(學成路一)","tot":"13","sbi":"4","sarea":"三峽區","mday":"20250922165004","lat":"24.94477","lng":"121.37803","ar":"大義路195號(東南側公車站旁)","sareaen":"Sanxia Dist","snaen":"YouBike2.0_Xuecheng Dayi Rd.Intersection (Xuecheng Rd. 1)","aren":"No. 195, Dayi Rd.(Southeast Bus station)","bemp":"9","act":"1"},{"sno":"500205019","sna":"YouBike2.0_龍埔三樹路98巷口","tot":"22","sbi":"9","sarea":"三峽區","mday":"20250922130004","lat":"24.93989","lng":"121.38393","ar":"三樹路98巷175號(旁)","sareaen":"Sanxia Dist","snaen":"YouBike2.0_Longpu & Ln. 98, Sancshu Rd. Intersection","aren":"No. 175, Ln. 98, Sanshu Rd.","bemp":"13","act":"1"},{"sno":"500205020","sna":"YouBike2.0_三峽區礁溪行政中心","tot":"20","sbi":"10","sarea":"三峽區","mday":"20250922133302","lat":"24.92843","lng":"121.37592","ar":"光明路96-100號對面","sareaen":"Sanxia Dist","snaen":"YouBike2.0_Sanxia District Jiaoxi Administration Center","aren":"No. 96-100, Guangming Rd. (Opposite)","bemp":"10","act":"1"},{"sno":"500205021","sna":"YouBike2.0_新北市客家文化園區","tot":"20","sbi":"12","sarea":"三峽區","mday":"20250922155003","lat":"24.94207","lng":"121.36034","ar":"隆恩街239號(前人行道)","sareaen":"Sanxia Dist","snaen":"YouBike2.0_Hakka Museum New Taipei City Government","aren":"No.239, Long’en St., Sanxia Dist.","bemp":"8","act":"1"},{"sno":"500205022","sna":"YouBike2.0_龍恩公園","tot":"26","sbi":"4","sarea":"三峽區","mday":"20250922185004","lat":"24.94135","lng":"121.37052","ar":"國際一街90號南側","sareaen":"Sanxia Dist","snaen":"YouBike2.0_longen Park","aren":"No. 90, Guoji 1st St. (South)","bemp":"22","act":"1"},{"sno":"500205023","sna":"YouBike2.0_龍埔公園","tot":"28","sbi":"9","sarea":"三峽區","mday":"20250922185004","lat":"24.93841","lng":"121.3742","ar":"國光街73號(對面)","sareaen":"Sanxia Dist","snaen":"YouBike2.0_Longpu Park","aren":"No.73, Guoguang St., Sanxia Dist","bemp":"19","act":"1"},{"sno":"500205024","sna":"YouBike2.0_大智中山路口","tot":"20","sbi":"2","sarea":"三峽區","mday":"20250922160202","lat":"24.93708","lng":"121.36059","ar":"大智路25號(前)","sareaen":"Sanxia Dist","snaen":"YouBike2.0_Dazhi Wenhua Rd.Intersection","aren":"No.25, Dazhi Rd.","bemp":"18","act":"1"},{"sno":"500205025","sna":"YouBike2.0_明德高中","tot":"52","sbi":"17","sarea":"三峽區","mday":"20250922160202","lat":"24.90742","lng":"121.36472","ar":"中正路二段399號(西北側)","sareaen":"Sanxia Dist","snaen":"YouBike2.0_Mingde High School","aren":"No. 399, Sec. 2, Zhongzheng Rd.(Northwest)","bemp":"35","act":"1"},{"sno":"500205026","sna":"YouBike2.0_學府大學路口","tot":"18","sbi":"3","sarea":"三峽區","mday":"20250922185004","lat":"24.94779","lng":"121.3718","ar":"學府路6號","sareaen":"Sanxia Dist","snaen":"YouBike2.0_Xuefu Daxue Rd. Intersection","aren":"No. 6, Xuefu Rd.","bemp":"15","act":"1"},{"sno":"500205027","sna":"YouBike2.0_學府大德路口","tot":"12","sbi":"5","sarea":"三峽區","mday":"20250922184017","lat":"24.94864","lng":"121.37362","ar":"大德路493號北側","sareaen":"Sanxia Dist","snaen":"YouBike2.0_Xuefu Dade Rd. Intersection","aren":"No. 493, Dade Rd.(North)","bemp":"7","act":"1"},{"sno":"500205028","sna":"YouBike2.0_大德學勤路口","tot":"15","sbi":"0","sarea":"三峽區","mday":"20250922191915","lat":"24.94634","lng":"121.37506","ar":"學勤路105號","sareaen":"Sanxia Dist","snaen":"YouBike2.0_Dade Xueqin Rd. Intersection","aren":"No. 105, Xueqin Rd.","bemp":"14","act":"1"},{"sno":"500205029","sna":"YouBike2.0_學勤大觀路口","tot":"15","sbi":"2","sarea":"三峽區","mday":"20250922185004","lat":"24.94584","lng":"121.37430","ar":"學勤路86號","sareaen":"Sanxia Dist","snaen":"YouBike2.0_Xueqin Daguan Rd. Intersection","aren":"No. 86, Xueqin Rd.","bemp":"13","act":"1"},{"sno":"500205030","sna":"YouBike2.0_學成大德路口","tot":"13","sbi":"7","sarea":"三峽區","mday":"20250922184916","lat":"24.94334","lng":"121.37634","ar":"學成路278號","sareaen":"Sanxia Dist","snaen":"YouBike2.0_Xuecheng Dade Rd. Intersection","aren":"No. 278, Xuecheng Rd.","bemp":"6","act":"1"},{"sno":"500205031","sna":"YouBike2.0_三樹大德路口","tot":"15","sbi":"3","sarea":"三峽區","mday":"20250922185004","lat":"24.94163","lng":"121.37871","ar":"三樹路197號","sareaen":"Sanxia Dist","snaen":"YouBike2.0_Sanshu Dade Rd. Intersection","aren":"No. 197, Sanshu Rd.","bemp":"12","act":"1"},{"sno":"500205032","sna":"YouBike2.0_大義三樹路口","tot":"14","sbi":"6","sarea":"三峽區","mday":"20250922164006","lat":"24.94357","lng":"121.37899","ar":"大義路7號","sareaen":"Sanxia Dist","snaen":"YouBike2.0_Dayi Sanshu Rd. Intersection","aren":"No. 7, Dayi Rd.","bemp":"8","act":"1"},{"sno":"500205033","sna":"YouBike2.0_中園國小(民權街)","tot":"19","sbi":"1","sarea":"三峽區","mday":"20250922153415","lat":"24.92853","lng":"121.36767","ar":"民權街209號","sareaen":"Sanxia Dist","snaen":"YouBike2.0_Zhongyuan Elementary School(Minquan St.)","aren":"No. 209, Minquan St.","bemp":"18","act":"1"},{"sno":"500205034","sna":"YouBike2.0_三峽國小(中山路)","tot":"21","sbi":"5","sarea":"三峽區","mday":"20250922081215","lat":"24.93474","lng":"121.36779","ar":"中山路16號","sareaen":"Sanxia Dist","snaen":"YouBike2.0_Sanxia Elementary School(Zhongshan Rd.)","aren":"No. 16, Zhongshan Rd.","bemp":"16","act":"1"},{"sno":"500205035","sna":"YouBike2.0_臺北大學宿舍(學成路)","tot":"20","sbi":"0","sarea":"三峽區","mday":"20250922192220","lat":"24.94092","lng":"121.36856","ar":"學成路3號","sareaen":"Sanxia Dist","snaen":"YouBike2.0_National Taipei University Dormitory(Xuecheng Rd.)","aren":"No. 3, Xuecheng Rd.","bemp":"20","act":"1"},{"sno":"500205036","sna":"YouBike2.0_國際二國學街口","tot":"15","sbi":"10","sarea":"三峽區","mday":"20250922192004","lat":"24.94319","lng":"121.37233","ar":"國際二街33號","sareaen":"Sanxia Dist","snaen":"YouBike2.0_Guoji 2nd Guoxue St. Intersection","aren":"No. 33, Guoji 2nd St.","bemp":"5","act":"1"},{"sno":"500205037","sna":"YouBike2.0_大學學成路口","tot":"11","sbi":"2","sarea":"三峽區","mday":"20250922192004","lat":"24.94298","lng":"121.37521","ar":"大學路113號","sareaen":"Sanxia Dist","snaen":"YouBike2.0_Daxue Xuecheng Rd. Intersection","aren":"No. 113, Daxue Rd.","bemp":"9","act":"1"},{"sno":"500205038","sna":"YouBike2.0_國慶三樹路口","tot":"20","sbi":"4","sarea":"三峽區","mday":"20250922184004","lat":"24.93826","lng":"121.37738","ar":"國慶路2號","sareaen":"Sanxia Dist","snaen":"YouBike2.0_Guoqing Sanshu Rd. Intersection","aren":"No. 2, Guoqing Rd.","bemp":"16","act":"1"},{"sno":"500205039","sna":"YouBike2.0_三樹大學路口","tot":"14","sbi":"9","sarea":"三峽區","mday":"20250922192004","lat":"24.93951","lng":"121.37816","ar":"三樹路69號","sareaen":"Sanxia Dist","snaen":"YouBike2.0_Sanshu Daxue Rd. Intersection","aren":"No. 69, Sanshu Rd.","bemp":"5","act":"1"},{"sno":"500205040","sna":"YouBike2.0_薇多綠雅社區(警衛亭)","tot":"19","sbi":"10","sarea":"三峽區","mday":"20250922134803","lat":"24.90883","lng":"121.35816","ar":"二鬮路136巷49號北側","sareaen":"Sanxia Dist","snaen":"YouBike2.0_Victoria Community(Guard Booth)","aren":"No. 49, Ln. 136, Erjiu Rd.(North)","bemp":"9","act":"1"},{"sno":"500205041","sna":"YouBike2.0_薇多綠雅社區(活動中心)","tot":"15","sbi":"6","sarea":"三峽區","mday":"20250922150602","lat":"24.90955","lng":"121.35727","ar":"二鬮路136巷73號北側","sareaen":"Sanxia Dist","snaen":"YouBike2.0_Victoria Community(Activity Center)","aren":"No. 73, Ln. 136, Erjiu Rd.(North)","bemp":"9","act":"1"},{"sno":"500205042","sna":"YouBike2.0_溪東市民活動中心","tot":"20","sbi":"7","sarea":"三峽區","mday":"20250919164005","lat":"24.93192","lng":"121.40753","ar":"溪東路218巷3號前","sareaen":"Sanxia Dist","snaen":"YouBike2.0_Xidong Civil Activity Center","aren":"No. 3, Ln. 218, Xidong Rd.","bemp":"13","act":"1"},{"sno":"500205043","sna":"YouBike2.0_光明路69巷口","tot":"17","sbi":"6","sarea":"三峽區","mday":"20250922132302","lat":"24.92918","lng":"121.37726","ar":"光明路69巷37號","sareaen":"Sanxia Dist","snaen":"YouBike2.0_Ln. 69, Guangming Rd. Intersection","aren":"No. 37, Ln. 69, Guangming Rd.","bemp":"11","act":"1"},{"sno":"500205044","sna":"YouBike2.0_大同路270巷口","tot":"15","sbi":"5","sarea":"三峽區","mday":"20250922133004","lat":"24.92526","lng":"121.36551","ar":"大同路268號對側","sareaen":"Sanxia Dist","snaen":"YouBike2.0_Ln. 270, Datong Rd. Intersection","aren":"No. 268, Datong Rd.(Opposite)","bemp":"10","act":"1"},{"sno":"500205045","sna":"YouBike2.0_龍埔自行車道(民生街1巷)","tot":"20","sbi":"11","sarea":"三峽區","mday":"20250922175002","lat":"24.93455","lng":"121.37824","ar":"民生街1巷5-82號","sareaen":"Sanxia Dist","snaen":"YouBike2.0_Longpu Bikeway (Ln. 1, Minsheng St.)","aren":"No. 5-82, Ln. 1, Minsheng St.","bemp":"9","act":"1"},{"sno":"500205046","sna":"YouBike2.0_龍埔介壽路口","tot":"16","sbi":"7","sarea":"三峽區","mday":"20250922144003","lat":"24.93513","lng":"121.39008","ar":"介壽路二段25號東側","sareaen":"Sanxia Dist","snaen":"YouBike2.0_Longpu & Jieshou Intersection","aren":"No. 25, Sec. 2, Jieshou Rd.(East)","bemp":"9","act":"1"},{"sno":"500205047","sna":"YouBike2.0_國慶學成路口","tot":"10","sbi":"1","sarea":"三峽區","mday":"20250922190515","lat":"24.94095","lng":"121.37397","ar":"學成路216號(南側)","sareaen":"Sanxia Dist","snaen":"YouBike2.0_0","aren":"No. 216, Xuecheng Rd.(South)","bemp":"9","act":"1"},{"sno":"500205048","sna":"YouBike2.0_中園街福隆宮","tot":"15","sbi":"6","sarea":"三峽區","mday":"20250922062801","lat":"24.92239","lng":"121.36717","ar":"中園街124號(旁)","sareaen":"Sanxia Dist","snaen":"YouBike2.0_Zhongyuan St. Fulong Temple","aren":"No. 124, Zhongyuan St.","bemp":"9","act":"1"},{"sno":"500205049","sna":"YouBike2.0_臺北大學蓮池","tot":"24","sbi":"13","sarea":"三峽區","mday":"20250922134303","lat":"24.94723","lng":"121.37117","ar":"臺北大學蓮池","sareaen":"Sanxia Dist","snaen":"YouBike2.0_NTPU Lotus Pond","aren":"NTPU Lotus Pond","bemp":"11","act":"1"},{"sno":"500205050","sna":"YouBike2.0_臺北大學商學院(尋鳶大道)","tot":"11","sbi":"1","sarea":"三峽區","mday":"20250922185215","lat":"24.94557","lng":"121.37249","ar":"尋鳶大道/中央大道(西北側)","sareaen":"Sanxia Dist","snaen":"YouBike2.0_NTPU College of Business (Kite-Seeking Avenue)","aren":"Kite-Seeking Avenue & Central Avenue (Northwest)","bemp":"10","act":"1"},{"sno":"500205051","sna":"YouBike2.0_臺北大學商學院(法商大道)","tot":"26","sbi":"8","sarea":"三峽區","mday":"20250922190315","lat":"24.94499","lng":"121.37146","ar":"法商大道/中央大道(東北側)","sareaen":"Sanxia Dist","snaen":"YouBike2.0_法商大道/中央大道(東北側)","aren":"Law & Commerce Avenue & Central Avenue (Northeast)","bemp":"18","act":"1"},{"sno":"500205052","sna":"YouBike2.0_臺北大學行政大樓(法商大道)","tot":"23","sbi":"0","sarea":"三峽區","mday":"20250922164815","lat":"24.94494","lng":"121.3712","ar":"法商大道/中央大道(西北側)","sareaen":"Sanxia Dist","snaen":"YouBike2.0_法商大道/中央大道(西北側)","aren":"Law & Commerce Avenue & Central Avenue (Northeast)","bemp":"23","act":"1"},{"sno":"500205053","sna":"YouBike2.0_臺北大學法學院(鳶飛大道)","tot":"29","sbi":"6","sarea":"三峽區","mday":"20250922160202","lat":"24.94438","lng":"121.37333","ar":"臺北大學法學院(鳶飛大道)","sareaen":"Sanxia Dist","snaen":"YouBike2.0_臺北大學法學院(鳶飛大道)","aren":"NTPU College of Law (Kite-Soaring Avenue)","bemp":"23","act":"1"},{"sno":"500205054","sna":"YouBike2.0_臺北大學公共事務大樓(法商大道)","tot":"22","sbi":"0","sarea":"三峽區","mday":"20250922185916","lat":"24.94363","lng":"121.37212","ar":"臺北大學公共事務大樓(法商大道)","sareaen":"Sanxia Dist","snaen":"YouBike2.0_NTPU College of Public Affairs (Law & Commerce Avenue)","aren":"NTPU College of Public Affairs (Law & Commerce Avenue)","bemp":"22","act":"1"},{"sno":"500205055","sna":"YouBike2.0_臺北大學公共事務大樓(公政大道)","tot":"23","sbi":"19","sarea":"三峽區","mday":"20250922190215","lat":"24.94325","lng":"121.37121","ar":"臺北大學公共事務大樓(公政大道)","sareaen":"Sanxia Dist","snaen":"YouBike2.0_臺北大學公共事務大樓(公政大道)","aren":"NTPU College of Public Affairs (Public Affairs & Administration Avenue)","bemp":"4","act":"1"},{"sno":"500205056","sna":"YouBike2.0_臺北大學行政大樓(公政大道)","tot":"34","sbi":"1","sarea":"三峽區","mday":"20250922184730","lat":"24.94457","lng":"121.37037","ar":"公政大道/中央大道(東北側)","sareaen":"Sanxia Dist","snaen":"YouBike2.0_NTPU Administration Center(Law & Commerce Avenue)","aren":"Public Affairs & Administration Avenue & Central Avenue (Northeast)","bemp":"33","act":"1"},{"sno":"500205057","sna":"YouBike2.0_臺北大學社科院(公政大道)","tot":"25","sbi":"2","sarea":"三峽區","mday":"20250922184004","lat":"24.94441","lng":"121.3701","ar":"公政大道/中央大道(西北側)","sareaen":"Sanxia Dist","snaen":"YouBike2.0_NTPU College of Social Sciences (Public Affairs & Administration Avenue)","aren":"Public Affairs & Administration Avenue & Central Avenue (Northwest)","bemp":"23","act":"1"},{"sno":"500205058","sna":"YouBike2.0_臺北大學社科院(圖資大道)","tot":"27","sbi":"14","sarea":"三峽區","mday":"20250922131002","lat":"24.94396","lng":"121.36912","ar":"臺北大學社科院(圖資大道)","sareaen":"Sanxia Dist","snaen":"YouBike2.0_臺北大學社科院(圖資大道)","aren":"NTPU College of Social Sciences (Library & Information Avenue)","bemp":"13","act":"1"},{"sno":"500205059","sna":"YouBike2.0_臺北大學田徑場(體風路)","tot":"30","sbi":"27","sarea":"三峽區","mday":"20250922164916","lat":"24.9395","lng":"121.36433","ar":"臺北大學田徑場(體風路)","sareaen":"Sanxia Dist","snaen":"YouBike2.0_臺北大學田徑場(體風路)","aren":"NTPU Athletic Field (Sprotsmanship Rd.)","bemp":"3","act":"1"},{"sno":"500205060","sna":"YouBike2.0_臺北大學隆恩哨(忘憂路)","tot":"15","sbi":"10","sarea":"三峽區","mday":"20250922113702","lat":"24.94254","lng":"121.36547","ar":"臺北大學隆恩哨(忘憂路)","sareaen":"Sanxia Dist","snaen":"YouBike2.0_NTPU Long'en Gate (The Merry Rd.)","aren":"NTPU Long'en Gate (The Merry Rd.)","bemp":"5","act":"1"},{"sno":"500205061","sna":"YouBike2.0_臺北大學懷德居木師基地","tot":"14","sbi":"5","sarea":"三峽區","mday":"20250922161003","lat":"24.94334","lng":"121.36743","ar":"臺北大學懷德居木師基地","sareaen":"Sanxia Dist","snaen":"YouBike2.0_臺北大學懷德居木師基地","aren":"NTPU Woodworking Complex, HDG","bemp":"9","act":"1"},{"sno":"500205062","sna":"YouBike2.0_北大高中","tot":"23","sbi":"1","sarea":"三峽區","mday":"20250922173115","lat":"24.9492","lng":"121.37505","ar":"大義路277號(北側)","sareaen":"Sanxia Dist","snaen":"YouBike2.0_Bei Da High School","aren":"No. 277, Dayi Rd.(North)","bemp":"22","act":"1"},{"sno":"500205063","sna":"YouBike2.0_光明停車場","tot":"15","sbi":"9","sarea":"三峽區","mday":"20250922164006","lat":"24.93036","lng":"121.37410","ar":"光明路/愛國路(東側停車場內)","sareaen":"Sanxia Dist","snaen":"YouBike2.0_Guangming Parking Lot","aren":"Guangming Rd./ Aiguo Rd. (East)","bemp":"6","act":"1"},{"sno":"500205064","sna":"YouBike2.0_八安大橋(清水街)","tot":"10","sbi":"2","sarea":"三峽區","mday":"20250922175016","lat":"24.92701","lng":"121.36891","ar":"中園街13號(清水街側)","sareaen":"Sanxia Dist","snaen":"YouBike2.0_Ba'an Bridge","aren":"No. 13, Zhongyuan St.(Qingshui St. side)","bemp":"8","act":"1"},{"sno":"500205065","sna":"YouBike2.0_三峽中山公園","tot":"15","sbi":"4","sarea":"三峽區","mday":"20250922175002","lat":"24.93561","lng":"121.36584","ar":"文化路/中山路口(西南側)","sareaen":"Sanxia Dist","snaen":"YouBike2.0_Sanxia Zhongshan Park","aren":"Wenhua Rd. & Zhongshan Rd. (Southwest)","bemp":"11","act":"1"},{"sno":"500205066","sna":"YouBike2.0_三鶯國民運動中心停車場","tot":"32","sbi":"1","sarea":"三峽區","mday":"20250922192417","lat":"24.93614","lng":"121.36941","ar":"文化路164號(對面)","sareaen":"Sanxia Dist","snaen":"YouBike2.0_Sanying Civil Sports Center Parking Lot","aren":"No. 164, Wenhua Rd. (Opposite)","bemp":"31","act":"1"},{"sno":"500205067","sna":"YouBike2.0_國光街330巷口","tot":"16","sbi":"1","sarea":"三峽區","mday":"20250922181116","lat":"24.93942","lng":"121.37212","ar":"國光街322號(對側)","sareaen":"Sanxia Dist","snaen":"YouBike2.0_Ln. 330, Guoguang St. Intersection","aren":"No. 322, Guoguang St. (Opposite)","bemp":"15","act":"1"},{"sno":"500205068","sna":"YouBike2.0_添福里(添福15號之33)","tot":"16","sbi":"5","sarea":"三峽區","mday":"20250922105702","lat":"24.90475","lng":"121.37254","ar":"添福15號之33(對側)","sareaen":"Sanxia Dist","snaen":"YouBike2.0_Tianfu Vil (No. 15-33, Tianfu)","aren":"No. 15-33, Tianfu (Opposite)","bemp":"11","act":"1"},{"sno":"500205070","sna":"YouBike2.0_三峽原住民族生活文化園區","tot":"31","sbi":"14","sarea":"三峽區","mday":"20250921215002","lat":"24.94565","lng":"121.36672","ar":"隆恩街158巷(捷運墩下停車場)","sareaen":"Sanxia Dist","snaen":"YouBike2.0_Sanxia Aboriginal Cultural Park","aren":"Ln. 158, LongEn St. (Car Park)","bemp":"17","act":"1"},{"sno":"500206001","sna":"YouBike2.0_華南頂埔科技大樓","tot":"40","sbi":"4","sarea":"土城區","mday":"20250922160202","lat":"24.96046","lng":"121.41716","ar":"民權路1號","sareaen":"Tucheng Dist","snaen":"YouBike2.0_Hua Nan Dingpu Technology Building","aren":"No. 1, Minquan St.","bemp":"36","act":"1"},{"sno":"500206002","sna":"YouBike2.0_新北高工(學士路)","tot":"28","sbi":"6","sarea":"土城區","mday":"20250922192004","lat":"24.98216","lng":"121.45277","ar":"學士路41號(前)","sareaen":"Tucheng Dist","snaen":"YouBike2.0_New Taipei Industrial Vocational High School (Xueshi Rd.)","aren":"No. 41, Xueshi Rd.","bemp":"22","act":"1"},{"sno":"500206003","sna":"YouBike2.0_清水社區公園","tot":"42","sbi":"19","sarea":"土城區","mday":"20250922192004","lat":"24.98382","lng":"121.46353","ar":"延吉街381巷與延吉街口","sareaen":"Tucheng Dist","snaen":"YouBike2.0_Qing Shui Community Park","aren":"Ln. 381, Yanji St. & Yanji St. Intersection","bemp":"23","act":"1"},{"sno":"500206004","sna":"YouBike2.0_土城仁愛社區公園","tot":"39","sbi":"23","sarea":"土城區","mday":"20250922192004","lat":"24.98071","lng":"121.46035","ar":"仁愛路12號旁","sareaen":"Tucheng Dist","snaen":"YouBike2.0_Tucheng Renai Park","aren":"No. 12, Ren’ai Rd.","bemp":"16","act":"1"},{"sno":"500206005","sna":"YouBike2.0_清和里(青雲路)","tot":"37","sbi":"14","sarea":"土城區","mday":"20250922175002","lat":"24.97513","lng":"121.45874","ar":"青雲路449號(對面)","sareaen":"Tucheng Dist","snaen":"YouBike2.0_Qinghe Village(Qingyun Rd.)","aren":"No.449, Qingyun Rd.","bemp":"23","act":"1"},{"sno":"500206006","sna":"YouBike2.0_斬龍山遺址文化公園","tot":"64","sbi":"18","sarea":"土城區","mday":"20250922192004","lat":"24.97666","lng":"121.44770","ar":"龍山一街與金城路二段路口","sareaen":"Tucheng Dist","snaen":"YouBike2.0_Zhanlongshan Archaeological Park","aren":"Longshan 1st St./Sec. 2, Jincheng Rd., Tucheng Dist.","bemp":"46","act":"1"},{"sno":"500206007","sna":"YouBike2.0_中央路一段292巷口","tot":"53","sbi":"23","sarea":"土城區","mday":"20250922192004","lat":"24.98279","lng":"121.44383","ar":"中央路一段274號(對面)","sareaen":"Tucheng Dist","snaen":"YouBike2.0_Ln. 292, Sec. 1, Zhongyang Rd. Intersection","aren":"No. 274, Sec. 1, Zhongyang Rd., Tucheng Dist.(opposite)","bemp":"30","act":"1"},{"sno":"500206008","sna":"YouBike2.0_中華城林路口","tot":"30","sbi":"13","sarea":"土城區","mday":"20250922164006","lat":"24.97525","lng":"121.43883","ar":"中華路二段165號前(天橋下)","sareaen":"Tucheng Dist","snaen":"YouBike2.0_Zhonghua & Chenglin Intersection","aren":"No. 165, Sec. 2, Zhonghua Rd.","bemp":"17","act":"1"},{"sno":"500206009","sna":"YouBike2.0_頂埔市場","tot":"29","sbi":"20","sarea":"土城區","mday":"20250922192004","lat":"24.95816","lng":"121.41504","ar":"中州路28巷30號","sareaen":"Tucheng Dist","snaen":"YouBike2.0_Dingpu Market","aren":"No. 30, Ln. 28, Zhongzhou Rd., Tucheng Dist.","bemp":"9","act":"1"},{"sno":"500206010","sna":"YouBike2.0_土城綜合體育場","tot":"56","sbi":"2","sarea":"土城區","mday":"20250922181720","lat":"24.984095","lng":"121.453797","ar":"裕民路195巷旁","sareaen":"Tucheng Dist","snaen":"YouBike2.0_Tucheng Sports Field","aren":"Ln. 195, Yumin Rd.","bemp":"54","act":"1"},{"sno":"500206011","sna":"YouBike2.0_捷運海山站(1號出口)","tot":"54","sbi":"22","sarea":"土城區","mday":"20250922191116","lat":"24.98441","lng":"121.44855","ar":"裕生路67巷14號前人行道(東側)","sareaen":"Tucheng Dist","snaen":"YouBike2.0_MRT Haishan","aren":"No.14, Ln 67, Yusheng Rd.(East)","bemp":"32","act":"1"},{"sno":"500206012","sna":"YouBike2.0_學成公園","tot":"42","sbi":"4","sarea":"土城區","mday":"20250922175002","lat":"24.98803","lng":"121.45151","ar":"學成路72號對面公園(西南側)","sareaen":"Tucheng Dist","snaen":"YouBike2.0_Xuecheng Park","aren":"No. 72, Xuecheng Rd., Tucheng Dist.","bemp":"38","act":"1"},{"sno":"500206013","sna":"YouBike2.0_員和公園","tot":"34","sbi":"14","sarea":"土城區","mday":"20250922192017","lat":"24.978918316048684","lng":"121.44275033207957","ar":"中央路二段66號對面(東側)","sareaen":"Tucheng Dist","snaen":"YouBike2.0_Yuanhe Park","aren":"No.66, Sec. 2, Zhongyang Rd., Tucheng Dist.(opposite)","bemp":"20","act":"1"},{"sno":"500206014","sna":"YouBike2.0_捷運土城站(2號出口)","tot":"69","sbi":"9","sarea":"土城區","mday":"20250922192316","lat":"24.9728","lng":"121.44395","ar":"捷運土城站公車站牌旁人行道","sareaen":"Tucheng Dist","snaen":"YouBike2.0_MRT Tucheng Sta.(Exit 2)","aren":"MRT Tucheng Sta.(Exit 2)","bemp":"60","act":"1"},{"sno":"500206015","sna":"YouBike2.0_金城忠義路口","tot":"40","sbi":"27","sarea":"土城區","mday":"20250922184916","lat":"24.9691","lng":"121.44024","ar":"金城路一段18號旁(西側)","sareaen":"Tucheng Dist","snaen":"YouBike2.0_Jincheng & Zhongyi Intersection","aren":"No. 18, Sec. 1, Jincheng Rd.(West)","bemp":"12","act":"1"},{"sno":"500206016","sna":"YouBike2.0_捷運永寧站(2號出口)","tot":"47","sbi":"1","sarea":"土城區","mday":"20250922181116","lat":"24.96613","lng":"121.43554","ar":"中央路三段112號對面人行道(南側)","sareaen":"Tucheng Dist","snaen":"YouBike2.0_MRT Yungning Sta.(EXIT 2)","aren":"No. 112, Sec. 3, Zhongyang Rd.(oppsite)","bemp":"46","act":"1"},{"sno":"500206017","sna":"YouBike2.0_亞洲員安路口","tot":"38","sbi":"19","sarea":"土城區","mday":"20250922184730","lat":"24.97256","lng":"121.43485","ar":"亞洲路9號旁人行道(東側)","sareaen":"Tucheng Dist","snaen":"YouBike2.0_Yazhou & Yuan'an Rd.","aren":"No. 9, Yazhou Rd., Tucheng Dist.","bemp":"15","act":"1"},{"sno":"500206018","sna":"YouBike2.0_金城立德路口","tot":"47","sbi":"5","sarea":"土城區","mday":"20250922184004","lat":"24.98689","lng":"121.46602","ar":"金城路三段41號前(南側)","sareaen":"Tucheng Dist","snaen":"YouBike2.0_Jincheng & Lide Intersection","aren":"No.41, Sec. 3, Jincheng Rd.(Side)","bemp":"42","act":"1"},{"sno":"500206019","sna":"YouBike2.0_金城立體停車場","tot":"60","sbi":"9","sarea":"土城區","mday":"20250922185004","lat":"24.98367","lng":"121.45795","ar":"金城路2段266號旁(西側陸橋旁)","sareaen":"Tucheng Dist","snaen":"YouBike2.0_Jincheng Parking Lot","aren":"No.266, Sec. 2, Jincheng Rd.(West)","bemp":"51","act":"1"},{"sno":"500206020","sna":"YouBike2.0_土城國中","tot":"50","sbi":"1","sarea":"土城區","mday":"20250922183518","lat":"24.96243","lng":"121.43037","ar":"永寧路18號(對面)","sareaen":"Tucheng Dist","snaen":"YouBike2.0_Tucheng Junior High School","aren":"No.18, Yongning Rd., Tucheng Dist.","bemp":"49","act":"1"},{"sno":"500206021","sna":"YouBike2.0_沛陂社區公園","tot":"28","sbi":"6","sarea":"土城區","mday":"20250922192004","lat":"24.963262311576905","lng":"121.41969877977414","ar":"土城區三民路23巷8弄(公園裡面)","sareaen":"Tucheng Dist","snaen":"YouBike2.0_Peipo Community Park","aren":"Aly. 8, Ln. 23, Sanmin Rd., Tucheng Dist","bemp":"21","act":"1"},{"sno":"500206022","sna":"YouBike2.0_捷運頂埔站(2號出口)","tot":"66","sbi":"22","sarea":"土城區","mday":"20250922192017","lat":"24.95852","lng":"121.41780","ar":"中央路四段53號(前)","sareaen":"Tucheng Dist","snaen":"YouBike2.0_MRT Dingpu Sta.(Exit.2)","aren":"No.53, Sec. 4, Zhongyang Rd.","bemp":"44","act":"1"},{"sno":"500206023","sna":"YouBike2.0_頂埔國小","tot":"40","sbi":"0","sarea":"土城區","mday":"20250812150816","lat":"24.95636","lng":"121.4144","ar":"中央路四段205號(頂埔國小校門口)(鄰近土城親子分館)","sareaen":"Tucheng Dist","snaen":"YouBike2.0_Dingpu Elementary School","aren":"No.205, Sec. 4, Zhongyang Rd.","bemp":"40","act":"0"},{"sno":"500206024","sna":"YouBike2.0_頂新祖田市民活動中心","tot":"43","sbi":"23","sarea":"土城區","mday":"20250922192004","lat":"24.95319","lng":"121.41211","ar":"中央路四段285號","sareaen":"Tucheng Dist","snaen":"YouBike2.0_Dingxin-Zutian Civic Activity Center","aren":"No.285, Sec. 4, Zhongyang Rd.","bemp":"20","act":"1"},{"sno":"500206025","sna":"YouBike2.0_捷運海山站(3號出口)轉乘停車場","tot":"80","sbi":"15","sarea":"土城區","mday":"20250922192004","lat":"24.98639","lng":"121.44911","ar":"海山路/樂利街(西北側)","sareaen":"Tucheng Dist","snaen":"YouBike2.0_MRT HaiShan Sta.(Exit 3) Car Park","aren":"Haishan Rd. & Leli St. (Northeast)","bemp":"65","act":"1"},{"sno":"500206026","sna":"YouBike2.0_大安中央路口","tot":"27","sbi":"1","sarea":"土城區","mday":"20250922192004","lat":"24.96576","lng":"121.43264","ar":"大安路8號對面(西側)","sareaen":"Tucheng Dist","snaen":"YouBike2.0_Da'an & Zhongyang Intersection","aren":"No. 8, Da'an Rd.(West)","bemp":"26","act":"1"},{"sno":"500206027","sna":"YouBike2.0_中山1號科技總部","tot":"42","sbi":"10","sarea":"土城區","mday":"20250922192004","lat":"24.96044660965163","lng":"121.41212396244534","ar":"中山路1號","sareaen":"Tucheng Dist","snaen":"YouBike2.0_Zhongshan No. 1 Technology Headquarters","aren":"No. 1, Zhongshan Rd., Tucheng Dist.","bemp":"32","act":"1"},{"sno":"500206028","sna":"YouBike2.0_長風社區","tot":"30","sbi":"4","sarea":"土城區","mday":"20250922162416","lat":"24.97811","lng":"121.43937","ar":"土城區中華路二段91~95號(人行道)","sareaen":"Tucheng Dist","snaen":"YouBike2.0_Changfeng Community","aren":"No.91~95, Sec. 2, Zhonghua Rd., Tucheng Dist","bemp":"26","act":"1"},{"sno":"500206029","sna":"YouBike2.0_中央慶利街口(風華綠中央社區)","tot":"22","sbi":"8","sarea":"土城區","mday":"20250922185004","lat":"24.97338","lng":"121.44052","ar":"中央路二段288號(前)","sareaen":"Tucheng Dist","snaen":"YouBike2.0_Zhongyang & Qingli Intersection","aren":"No. 288, Sec. 2, Zhongyang Rd.","bemp":"13","act":"1"},{"sno":"500206030","sna":"YouBike2.0_金城裕民路口(金城舞社區)","tot":"40","sbi":"13","sarea":"土城區","mday":"20250922184004","lat":"24.98156","lng":"121.45466","ar":"金城路二段200號(旁)","sareaen":"Tucheng Dist","snaen":"YouBike2.0_Gincheng & Yumin Intersection","aren":"No. 200, Sec. 2, Jincheng Rd., Tucheng Dist.","bemp":"27","act":"1"},{"sno":"500206031","sna":"YouBike2.0_青雲路451巷口(紐約艾美社區)","tot":"41","sbi":"19","sarea":"土城區","mday":"20250922164006","lat":"24.97475","lng":"121.45873","ar":"青雲路449號(對面)","sareaen":"Tucheng Dist","snaen":"YouBike2.0_Ln. 451, Qingyun Rd.","aren":"No. 449, Qingyun Rd. (Opposite)","bemp":"22","act":"1"},{"sno":"500206032","sna":"YouBike2.0_學士學府路口(大苑社區)","tot":"47","sbi":"21","sarea":"土城區","mday":"20250922190715","lat":"24.976958449938596","lng":"121.44580101471448","ar":"學士路/學府路口(西北側建案基地)","sareaen":"Tucheng Dist","snaen":"YouBike2.0_Xueshi & Xuefu Intersection","aren":"Xueshi & Xuefu Intersection","bemp":"26","act":"1"},{"sno":"500206033","sna":"YouBike2.0_新北高工","tot":"57","sbi":"5","sarea":"土城區","mday":"20250922185004","lat":"24.98344","lng":"121.45054","ar":"學府路一段241號前","sareaen":"Tucheng Dist","snaen":"YouBike2.0_New Taipei Industrial Vocational High School","aren":"No.241, Sec. 1, Xuefu Rd., Tucheng Dist","bemp":"51","act":"1"},{"sno":"500206034","sna":"YouBike2.0_中華裕華街口","tot":"13","sbi":"6","sarea":"土城區","mday":"20250922160202","lat":"24.99003","lng":"121.4472","ar":"中華路一段/裕華街口(東北側)","sareaen":"Tucheng Dist","snaen":"YouBike2.0_Zhonghua &Yuhua Intersection","aren":"Sec. 1, Zhonghua Rd.&Yuhua St.","bemp":"7","act":"1"},{"sno":"500206035","sna":"YouBike2.0_金城裕民路口(中正國中)","tot":"54","sbi":"2","sarea":"土城區","mday":"20250922182018","lat":"24.98288","lng":"121.45619","ar":"金城路二段218號對面(西北側)","sareaen":"Tucheng Dist","snaen":"YouBike2.0_Gincheng & Yumin Intersection(Zhing Zheng Junior High School)","aren":"No.218, Sec. 2, Jincheng Rd., Tucheng Dist.","bemp":"52","act":"1"},{"sno":"500206036","sna":"YouBike2.0_中華中央路一段242巷口","tot":"38","sbi":"4","sarea":"土城區","mday":"20250922185018","lat":"24.98551","lng":"121.44348","ar":"中華路一段185號前(東側)","sareaen":"Tucheng Dist","snaen":"YouBike2.0_Zhonghua & Ln. 242, Sec. 1, Zhongyang Intersection","aren":"No.185, Sec. 1, Zhonghua Rd., Tucheng Dist.","bemp":"34","act":"1"},{"sno":"500206037","sna":"YouBike2.0_員林社區公園","tot":"50","sbi":"21","sarea":"土城區","mday":"20250922185004","lat":"24.97784","lng":"121.44328","ar":"員林街16號對面(北側)","sareaen":"Tucheng Dist","snaen":"YouBike2.0_Yuanlin Community Park","aren":"Ln. 16, Yuanlin St. (opposite)","bemp":"29","act":"1"},{"sno":"500206038","sna":"YouBike2.0_延和社區公園","tot":"40","sbi":"3","sarea":"土城區","mday":"20250922185004","lat":"24.99018","lng":"121.46882","ar":"延和路180號旁(西側)","sareaen":"Tucheng Dist","snaen":"YouBike2.0_Yanhe Community Park","aren":"No. 180, Yanhe Rd.","bemp":"37","act":"1"},{"sno":"500206039","sna":"YouBike2.0_青山廣場","tot":"42","sbi":"1","sarea":"土城區","mday":"20250922161216","lat":"24.97793","lng":"121.45987","ar":"明德路一段240巷1-1號前(東側)","sareaen":"Tucheng Dist","snaen":"YouBike2.0_Qingshan Square","aren":"No.1-1, Ln. 240, Sec. 1, Mingde Rd.","bemp":"41","act":"1"},{"sno":"500206040","sna":"YouBike2.0_立德青雲路口","tot":"40","sbi":"1","sarea":"土城區","mday":"20250922164417","lat":"24.9883","lng":"121.46102","ar":"立德路2號對面(北側)","sareaen":"Tucheng Dist","snaen":"YouBike2.0_Lide & Qingyun Intersection","aren":"No.2, Lide Rd., Tucheng Dist.","bemp":"38","act":"1"},{"sno":"500206041","sna":"YouBike2.0_廣福派出所","tot":"43","sbi":"1","sarea":"土城區","mday":"20250922185517","lat":"24.98816","lng":"121.45655","ar":"學府路一段76號前(南側)","sareaen":"Tucheng Dist","snaen":"YouBike2.0_Guangfu Police Substation","aren":"No.76, Sec. 1, Xuefu Rd.(South)","bemp":"35","act":"1"},{"sno":"500206042","sna":"YouBike2.0_延吉街291巷口","tot":"10","sbi":"2","sarea":"土城區","mday":"20250922192004","lat":"24.98394","lng":"121.46716","ar":"延吉街291巷/延吉街253巷18弄口(西南側)","sareaen":"Tucheng Dist","snaen":"YouBike2.0_Ln. 291, Yanji St.","aren":"Ln. 291, Yanji St. & Aly. 18, Ln. 253, Yanji St.(Southwest)","bemp":"8","act":"1"},{"sno":"500206043","sna":"YouBike2.0_清水高中","tot":"46","sbi":"1","sarea":"土城區","mday":"20250922181416","lat":"24.982","lng":"121.46547","ar":"明德路一段72號前(公車站清水高中站旁)","sareaen":"Tucheng Dist","snaen":"YouBike2.0_Qing Shui Senior High School","aren":"No.72, Sec. 1, Mingde Rd.","bemp":"45","act":"1"},{"sno":"500206044","sna":"YouBike2.0_裕民路口(清水路)","tot":"34","sbi":"16","sarea":"土城區","mday":"20250922192004","lat":"24.98157","lng":"121.45616","ar":"清水路68號(西側)","sareaen":"Tucheng Dist","snaen":"YouBike2.0_Yumin Rd. Intersection(Qingshui Rd.)","aren":"No. 68, Qingshui Rd.(West)","bemp":"18","act":"1"},{"sno":"500206045","sna":"YouBike2.0_青隆青福街口","tot":"20","sbi":"1","sarea":"土城區","mday":"20250922175815","lat":"24.97974","lng":"121.45665","ar":"青隆街/青福街口(東北側)","sareaen":"Tucheng Dist","snaen":"YouBike2.0_QingLong St. & QingFu St. Intersection","aren":"QingLong St. & QingFu St. (Northeast)","bemp":"19","act":"1"},{"sno":"500206046","sna":"YouBike2.0_中華日新街口","tot":"10","sbi":"3","sarea":"土城區","mday":"20250922150602","lat":"24.98756","lng":"121.44463","ar":"中華路一段/日新街口(西北側)","sareaen":"Tucheng Dist","snaen":"YouBike2.0_Zhonghua Rixin St. Intersection","aren":"Sec. 1, Zhonghua Rd. & Rixin St. Intersection(Northwest)","bemp":"7","act":"1"},{"sno":"500206047","sna":"YouBike2.0_清水高中(國際路)","tot":"13","sbi":"1","sarea":"土城區","mday":"20250922190020","lat":"24.98034","lng":"121.46498","ar":"明德路一段139號西側","sareaen":"Tucheng Dist","snaen":"YouBike2.0_Qingshui High School(Guoji Rd.)","aren":"No. 139, Sec. 1, Mingde Rd.(West)","bemp":"12","act":"1"},{"sno":"500206048","sna":"YouBike2.0_延吉街111巷1弄","tot":"18","sbi":"3","sarea":"土城區","mday":"20250922182316","lat":"24.98623","lng":"121.47171","ar":"延吉街111巷10號北側","sareaen":"Tucheng Dist","snaen":"YouBike2.0_Aly. 1, Ln. 111, Yanji St.","aren":"No. 10, Ln. 111, Yanji St.(North)","bemp":"14","act":"1"},{"sno":"500206049","sna":"YouBike2.0_大安市民活動中心","tot":"25","sbi":"11","sarea":"土城區","mday":"20250922184516","lat":"24.96595","lng":"121.43935","ar":"忠承路30號","sareaen":"Tucheng Dist","snaen":"YouBike2.0_Da'an Civic Activity Center","aren":"No. 30, Zhongcheng Rd.","bemp":"14","act":"1"},{"sno":"500206050","sna":"YouBike2.0_中央中華路口(金城)","tot":"16","sbi":"2","sarea":"土城區","mday":"20250922104002","lat":"24.96875","lng":"121.43808","ar":"中央路三段38號","sareaen":"Tucheng Dist","snaen":"YouBike2.0_Zhongyang Zhonghua Rd. Intersection(Jincheng)","aren":"No. 38, Sec. 3, Zhongyang Rd.","bemp":"14","act":"1"},{"sno":"500206051","sna":"YouBike2.0_土城國小(興城路)","tot":"17","sbi":"5","sarea":"土城區","mday":"20250922160202","lat":"24.97267","lng":"121.44149","ar":"慶安街45巷11號東側","sareaen":"Tucheng Dist","snaen":"YouBike2.0_Tucheng Elementary School(Xingcheng Rd.)","aren":"No. 11, Ln. 45, Qing'an St.(East)","bemp":"12","act":"1"},{"sno":"500206052","sna":"YouBike2.0_金城龍山二街口","tot":"20","sbi":"0","sarea":"土城區","mday":"20250905213115","lat":"24.97881","lng":"121.45096","ar":"金城路二段36號北側","sareaen":"Tucheng Dist","snaen":"YouBike2.0_Jincheng Longshan 2nd St. Intersection","aren":"No. 36, Sec. 2, Jincheng Rd.(North)","bemp":"0","act":"0"},{"sno":"500206053","sna":"YouBike2.0_新北高工(明德路)","tot":"18","sbi":"5","sarea":"土城區","mday":"20250922191215","lat":"24.98112","lng":"121.45150","ar":"明德路二段73號北側","sareaen":"Tucheng Dist","snaen":"YouBike2.0_New Taipei Industrial Vocational High School(Mingde Rd.)","aren":"No. 73, Sec. 2, Mingde Rd.(North)","bemp":"13","act":"1"},{"sno":"500206054","sna":"YouBike2.0_廣福國小","tot":"20","sbi":"4","sarea":"土城區","mday":"20250922184115","lat":"24.98713","lng":"121.45506","ar":"學府路一段144巷2號南側","sareaen":"Tucheng Dist","snaen":"YouBike2.0_Guangfu Elementary School","aren":"No. 2, Ln. 144, Sec. 1, Xuefu Rd.(South)","bemp":"16","act":"1"},{"sno":"500206055","sna":"YouBike2.0_裕民路55巷","tot":"17","sbi":"0","sarea":"土城區","mday":"20250922191516","lat":"24.98860","lng":"121.44948","ar":"裕民路55巷16號(對側)","sareaen":"Tucheng Dist","snaen":"YouBike2.0_Ln. 55, Yumin Rd.","aren":"No. 16, Ln. 55, Yumin Rd. (Opposite)","bemp":"14","act":"1"},{"sno":"500206056","sna":"YouBike2.0_裕生停車場","tot":"15","sbi":"5","sarea":"土城區","mday":"20250922192004","lat":"24.9846","lng":"121.44687","ar":"裕生路106號","sareaen":"Tucheng Dist","snaen":"YouBike2.0_Yusheng Parking Lot","aren":"No. 106, Yusheng Rd.","bemp":"10","act":"1"},{"sno":"500206057","sna":"YouBike2.0_中央路四段33號北側","tot":"15","sbi":"1","sarea":"土城區","mday":"20250922184315","lat":"24.96222","lng":"121.42329","ar":"中央路四段33號北側","sareaen":"Tucheng Dist","snaen":"YouBike2.0_No. 33, Sec. 4, Zhongyang Rd.(North)","aren":"No. 33, Sec. 4, Zhongyang Rd.(North)","bemp":"14","act":"1"},{"sno":"500206058","sna":"YouBike2.0_和平路105號","tot":"10","sbi":"3","sarea":"土城區","mday":"20250922133004","lat":"24.96847","lng":"121.45129","ar":"和平路105號(前)","sareaen":"Tucheng Dist","snaen":"YouBike2.0_No. 105, Heping Rd.","aren":"No. 105, Heping Rd.","bemp":"7","act":"1"},{"sno":"500206059","sna":"YouBike2.0_金城路三段52巷","tot":"16","sbi":"2","sarea":"土城區","mday":"20250922185517","lat":"24.98635","lng":"121.46609","ar":"金城路三段52巷8號(前)","sareaen":"Tucheng Dist","snaen":"YouBike2.0_Ln. 52, Sec. 3, Jincheng Rd.","aren":"No. 8, Ln. 52, Sec. 3, Jincheng Rd.","bemp":"14","act":"1"},{"sno":"500206060","sna":"YouBike2.0_延吉街47巷口","tot":"10","sbi":"2","sarea":"土城區","mday":"20250922190215","lat":"24.98795","lng":"121.47236","ar":"延吉街49號(對面)","sareaen":"Tucheng Dist","snaen":"YouBike2.0_Ln. 291, Yanji St. Intersection","aren":"No. 49, Yanji St.(Opposite)","bemp":"8","act":"1"},{"sno":"500206061","sna":"YouBike2.0_莒光四村停車場","tot":"12","sbi":"1","sarea":"土城區","mday":"20250922184216","lat":"24.98716","lng":"121.44639","ar":"中央路一段189巷1弄4號","sareaen":"Tucheng Dist","snaen":"YouBike2.0_Juguang 4th Village Parking Lot","aren":"No. 4, Aly. 1, Ln. 189, Sec. 1, Zhongyang Rd.","bemp":"11","act":"1"},{"sno":"500206062","sna":"YouBike2.0_中央路三段281巷","tot":"24","sbi":"1","sarea":"土城區","mday":"20250922182517","lat":"24.96314","lng":"121.42679","ar":"中央路三段281巷5號(對面)","sareaen":"Tucheng Dist","snaen":"YouBike2.0_Ln. 281, Sec. 3, Zhongyang Rd.","aren":"No. 5, Ln. 281, Sec. 3, Zhongyang Rd.","bemp":"23","act":"1"},{"sno":"500206063","sna":"YouBike2.0_捷運永寧站(3號出口)","tot":"23","sbi":"16","sarea":"土城區","mday":"20250922164006","lat":"24.96711","lng":"121.43688","ar":"中央路三段99號(旁)","sareaen":"Tucheng Dist","snaen":"YouBike2.0_MRT Yungning Sta.(EXIT 3)","aren":"No. 99, Sec. 3, Zhongyang Rd.","bemp":"7","act":"1"},{"sno":"500206064","sna":"YouBike2.0_捷運永寧站(4號出口)","tot":"12","sbi":"7","sarea":"土城區","mday":"20250922184004","lat":"24.96744","lng":"121.43677","ar":"中央路三段62號(前)","sareaen":"Tucheng Dist","snaen":"YouBike2.0_MRT Yungning Sta.(EXIT 4)","aren":"No. 62, Sec. 3, Zhongyang Rd.","bemp":"5","act":"1"},{"sno":"500206065","sna":"YouBike2.0_捷運土城站(1號出口)","tot":"10","sbi":"0","sarea":"土城區","mday":"20250922192316","lat":"24.97314","lng":"121.44418","ar":"金城路一段78號(對面)","sareaen":"Tucheng Dist","snaen":"YouBike2.0_MRT Tucheng Sta.(Exit 1)","aren":"No. 357, Sec. 2, Ganyuan St.(Opposite)","bemp":"10","act":"1"},{"sno":"500206066","sna":"YouBike2.0_青雲路434巷口","tot":"18","sbi":"9","sarea":"土城區","mday":"20250922161716","lat":"24.97193","lng":"121.45915","ar":"青雲路571號(旁)","sareaen":"Tucheng Dist","snaen":"YouBike2.0_Ln. 434, Qingyun Rd. Intersection","aren":"No. 571, Qingyun Rd.","bemp":"9","act":"1"},{"sno":"500206067","sna":"YouBike2.0_中央路二段180巷","tot":"15","sbi":"5","sarea":"土城區","mday":"20250922192004","lat":"24.97616","lng":"121.44162","ar":"中央路二段180巷1號(旁)","sareaen":"Tucheng Dist","snaen":"YouBike2.0_Ln. 180, Sec. 2, Zhongyang Rd.","aren":"No. 1, Ln. 180, Sec. 2, Zhongyang Rd.","bemp":"6","act":"1"},{"sno":"500206068","sna":"YouBike2.0_日和中華路口","tot":"21","sbi":"9","sarea":"土城區","mday":"20250922185004","lat":"24.98402","lng":"121.44283","ar":"日和街31號對面","sareaen":"Tucheng Dist","snaen":"YouBike2.0_Rihe & Chunghwa Rd. Intersection","aren":"No. 31, Rihe St.(Opposite)","bemp":"12","act":"1"},{"sno":"500206069","sna":"YouBike2.0_員林平面停車場","tot":"9","sbi":"0","sarea":"土城區","mday":"20250922191215","lat":"24.97681","lng":"121.44437","ar":"員林街76號(旁)","sareaen":"Tucheng Dist","snaen":"YouBike2.0_Yuanlin Parking Lot","aren":"No. 76, Yuanlin St.","bemp":"8","act":"1"},{"sno":"500206070","sna":"YouBike2.0_學士龍山二街口(金城舞2社區)","tot":"31","sbi":"2","sarea":"土城區","mday":"20250922192004","lat":"24.97991","lng":"121.45049","ar":"學士路100號(對面)","sareaen":"Tucheng Dist","snaen":"YouBike2.0_Xueshi & Longshan 2nd Street Intersection","aren":"No.100, Xueshi Rd.(Opposite)","bemp":"29","act":"1"},{"sno":"500206071","sna":"YouBike2.0_中央公園地下停車場","tot":"15","sbi":"6","sarea":"土城區","mday":"20250922144115","lat":"24.98276","lng":"121.44478","ar":"土城區中央路一段291巷24號(旁)","sareaen":"Tucheng Dist","snaen":"YouBike2.0_Zhongyang Parking Lot","aren":"No. 24, Ln. 291, Sec. 1, Zhongyang Rd.","bemp":"9","act":"1"},{"sno":"500206072","sna":"YouBike2.0_中華路一段70巷口","tot":"12","sbi":"9","sarea":"土城區","mday":"20250922133102","lat":"24.98825","lng":"121.4454","ar":"中華路一段60號(前)","sareaen":"Tucheng Dist","snaen":"YouBike2.0_Ln. 70, Sec. 1, Zhonghua Rd. Intersection","aren":"No. 60, Sec. 1, Zhonghua Rd","bemp":"3","act":"1"},{"sno":"500206073","sna":"YouBike2.0_延和廣場","tot":"19","sbi":"12","sarea":"土城區","mday":"20250922192004","lat":"24.98704","lng":"121.46415","ar":"立德路60號(對面)","sareaen":"Tucheng Dist","snaen":"YouBike2.0_Yenhe Square","aren":"No. 60, Lide Rd.(Opposite)","bemp":"7","act":"1"},{"sno":"500206074","sna":"YouBike2.0_明德平面停車場","tot":"10","sbi":"1","sarea":"土城區","mday":"20250922184730","lat":"24.98403","lng":"121.46628","ar":"永豐路190號(旁)","sareaen":"Tucheng Dist","snaen":"YouBike2.0_Mingde Parking Lot","aren":"No. 190, Yongfeng Rd.","bemp":"9","act":"1"},{"sno":"500206075","sna":"YouBike2.0_惜福公園","tot":"20","sbi":"9","sarea":"土城區","mday":"20250922152005","lat":"24.98144","lng":"121.44815","ar":"莊園街151號(旁)","sareaen":"Tucheng Dist","snaen":"YouBike2.0_Xifu Park","aren":"No. 151, Zhuangyuan St.","bemp":"11","act":"1"},{"sno":"500206076","sna":"YouBike2.0_中山三民路口(土城工業區)","tot":"40","sbi":"11","sarea":"土城區","mday":"20250922185004","lat":"24.96287","lng":"121.42122","ar":"三民路4號(對面)","sareaen":"Tucheng Dist","snaen":"YouBike2.0_Zhongshan & Sanmin Rd. Intersection (Tucheng Industrial Park)","aren":"No.4, Sanmin St. (Opposite)","bemp":"29","act":"1"},{"sno":"500206077","sna":"YouBike2.0_中央公園(莊園街)","tot":"33","sbi":"21","sarea":"土城區","mday":"20250922192004","lat":"24.98205","lng":"121.44565","ar":"莊園街53號","sareaen":"Tucheng Dist","snaen":"YouBike2.0_Central Park (Zhuangyuan St.)","aren":"No.53, Zhuangyuan St.","bemp":"12","act":"1"},{"sno":"500206078","sna":"YouBike2.0_承天路4巷(MRT社區)","tot":"40","sbi":"6","sarea":"土城區","mday":"20250922003802","lat":"24.96400","lng":"121.43617","ar":"承天路4巷/永和街(東側)","sareaen":"Tucheng Dist","snaen":"YouBike2.0_Ln. 4, Chengtian Rd.","aren":"Ln. 4, Chengtian Rd.","bemp":"34","act":"1"},{"sno":"500206079","sna":"YouBike2.0_金城路三段156號前","tot":"15","sbi":"3","sarea":"土城區","mday":"20250922185004","lat":"24.98728","lng":"121.46708","ar":"金城路三段156號(前)","sareaen":"Tucheng Dist","snaen":"YouBike2.0_No. 156, Sec. 3, Jincheng Rd.","aren":"No. 156, Sec. 3, Jincheng Rd. (Front)","bemp":"12","act":"1"},{"sno":"500206080","sna":"YouBike2.0_金城路二段61巷口(聯邦銀行)","tot":"40","sbi":"1","sarea":"土城區","mday":"20250922184730","lat":"24.97886","lng":"121.45077","ar":"金城路二段61巷口(西側)","sareaen":"Tucheng Dist","snaen":"YouBike2.0_Ln. 61, Sec. 2, Jincheng Rd. Intersection","aren":"Ln. 61, Sec. 2, Jincheng Rd. (West)","bemp":"39","act":"1"},{"sno":"500206081","sna":"YouBike2.0_裕華街","tot":"15","sbi":"6","sarea":"土城區","mday":"20250922151416","lat":"24.99050","lng":"121.44643","ar":"裕華街16-36號(旁)","sareaen":"Tucheng Dist","snaen":"YouBike2.0_Yuhua St.","aren":"No. 16-36, Yuhua St. (Side)","bemp":"9","act":"1"},{"sno":"500206082","sna":"YouBike2.0_土城區公所","tot":"28","sbi":"16","sarea":"土城區","mday":"20250922183518","lat":"24.97190","lng":"121.44316","ar":"金城路一段101號(前)","sareaen":"Tucheng Dist","snaen":"YouBike2.0_Tucheng  District Office","aren":"No. 101, Sec. 1, Jincheng Rd. (Front)","bemp":"12","act":"1"},{"sno":"500206083","sna":"YouBike2.0_捷運土城站(3號出口)","tot":"33","sbi":"9","sarea":"土城區","mday":"20250922153004","lat":"24.97390","lng":"121.44527","ar":"金城路一段90號(旁)","sareaen":"Tucheng Dist","snaen":"YouBike2.0_MRT Tucheng Sta.(Exit 3)","aren":"No. 90, Sec. 1, Jincheng Rd. (Side)","bemp":"24","act":"1"},{"sno":"500206084","sna":"YouBike2.0_金城峯廷街口","tot":"9","sbi":"1","sarea":"土城區","mday":"20250922191416","lat":"24.98814","lng":"121.46864","ar":"金城路三段200-1號(前)","sareaen":"Tucheng Dist","snaen":"YouBike2.0_Jincheng Rd. & Fengting St. Intersection","aren":"No. 200-1, Sec. 3, Jincheng Rd. (Front)","bemp":"8","act":"1"},{"sno":"500206085","sna":"YouBike2.0_永豐路157巷口","tot":"21","sbi":"1","sarea":"土城區","mday":"20250922185517","lat":"24.98171","lng":"121.46709","ar":"永豐路226號(前)","sareaen":"Tucheng Dist","snaen":"YouBike2.0_Ln. 157, Yongfeng Rd. Intersection","aren":"No. 226, Yongfeng Rd. (Front)","bemp":"20","act":"1"},{"sno":"500206086","sna":"YouBike2.0_捷運海山站(2號出口)","tot":"32","sbi":"10","sarea":"土城區","mday":"20250922192004","lat":"24.98457","lng":"121.44875","ar":"捷運海山站(2號出口)(南側)","sareaen":"Tucheng Dist","snaen":"YouBike2.0_MRT Haishan Station (Exit.2)","aren":"MRT Haishan Station (Exit.2) (South)","bemp":"22","act":"1"},{"sno":"500206087","sna":"YouBike2.0_青雲路411巷口(樂晴市樂郡區社區)","tot":"39","sbi":"5","sarea":"土城區","mday":"20250921155302","lat":"24.97582","lng":"121.45911","ar":"青雲路411巷/青雲路(東北側)","sareaen":"Tucheng Dist","snaen":"YouBike2.0_Ln. 411, QingYun Rd.","aren":"Ln. 411, QingYun Rd. (Northeast)","bemp":"34","act":"1"},{"sno":"500206088","sna":"YouBike2.0_學府中正路口(A+社區)","tot":"40","sbi":"1","sarea":"土城區","mday":"20250922095002","lat":"24.97551","lng":"121.44534","ar":"學府路二段/中正路(西南側)","sareaen":"Tucheng Dist","snaen":"YouBike2.0_XueFu Rd. & ZhongZheng Rd. Intersection","aren":"Sec. 2, XueFu Rd. & ZhongZheng Rd. (Southwest)","bemp":"39","act":"1"},{"sno":"500206089","sna":"YouBike2.0_莊園街(金城舞5社區)","tot":"40","sbi":"17","sarea":"土城區","mday":"20250922185004","lat":"24.981311","lng":"121.44792","ar":"莊園街/學府路二段(西北側)","sareaen":"Tucheng Dist","snaen":"YouBike2.0_ZhuangYuan St.","aren":"ZhuangYuan St. & Sec. 2, XueFu Rd. (Northwest)","bemp":"23","act":"1"},{"sno":"500206090","sna":"YouBike2.0_捷運海山站(3號出口)","tot":"40","sbi":"9","sarea":"土城區","mday":"20250922184004","lat":"24.98677","lng":"121.44935","ar":"海山路46號(對側)","sareaen":"Tucheng Dist","snaen":"YouBike2.0_MRT HaiShan Sta.(Exit 3)","aren":"No. 46, HaiShan Rd. (Opposite)","bemp":"31","act":"1"},{"sno":"500206091","sna":"YouBike2.0_土城國中(永安街115巷)","tot":"39","sbi":"1","sarea":"土城區","mday":"20250922170715","lat":"24.96316","lng":"121.42894","ar":"永安街115巷20號(東側)","sareaen":"Tucheng Dist","snaen":"YouBike2.0_Tucheng Junior High School (Ln. 115, YongAn St.)","aren":"No. 20, Ln. 115, YongAn St. (East)","bemp":"38","act":"1"},{"sno":"500206094","sna":"YouBike2.0_土城紫藤廊道(學海街)","tot":"25","sbi":"16","sarea":"土城區","mday":"20250922192004","lat":"24.97923","lng":"121.44836","ar":"學海街160號(旁)","sareaen":"Tucheng Dist","snaen":"YouBike2.0_Tucheng Wisteria Walkway (XueHai St.)","aren":"No. 160, XueHai St. (Side)","bemp":"9","act":"1"},{"sno":"500206095","sna":"YouBike2.0_明德青和街口","tot":"31","sbi":"16","sarea":"土城區","mday":"20250922192004","lat":"24.97738","lng":"121.45754","ar":"明德路一段/青和街口(西南側)","sareaen":"Tucheng Dist","snaen":"YouBike2.0_Sec. 1, MingDe Rd. & QingHe St. Intersection","aren":"Sec. 1, MingDe Rd. & QingHe St. (Southwest)","bemp":"15","act":"1"},{"sno":"500206096","sna":"YouBike2.0_土城綜合球場","tot":"30","sbi":"8","sarea":"土城區","mday":"20250922060202","lat":"24.97872","lng":"121.45420","ar":"明德路一段365-1號(對側)","sareaen":"Tucheng Dist","snaen":"YouBike2.0_TuCheng Multi-Sport Stadium","aren":"No. 365-1, Sec. 1, MingDe Rd. (Opposite)","bemp":"22","act":"1"},{"sno":"500207001","sna":"YouBike2.0_民有公園","tot":"48","sbi":"21","sarea":"中和區","mday":"20250922165004","lat":"25.00863","lng":"121.47468","ar":"中山路3段118-3號(對面)","sareaen":"Zhonghe Dist","snaen":"YouBike2.0_Minyou Park","aren":"No. 118-3, Sec. 3, Zhongshan Rd. (opposite)","bemp":"27","act":"1"},{"sno":"500207002","sna":"YouBike2.0_台灣科技廣場","tot":"70","sbi":"11","sarea":"中和區","mday":"20250922185004","lat":"25.00572","lng":"121.48906","ar":"板南路467號(前)","sareaen":"Zhonghe Dist","snaen":"YouBike2.0_Taiwan Science And Technology Plaza","aren":"No. 467, Bannan Rd.","bemp":"59","act":"1"},{"sno":"500207003","sna":"YouBike2.0_漳和國中","tot":"65","sbi":"17","sarea":"中和區","mday":"20250922184004","lat":"25.00244","lng":"121.50505","ar":"廣福路30號(對面)","sareaen":"Zhonghe Dist","snaen":"YouBike2.0_Zhanghe Junior High School","aren":"No. 30, Guangfu Rd.","bemp":"48","act":"1"},